country,city,AccentCity,region,population,lat,lng,elevation
ad,andorra la vella,Andorra la Vella,7.0,20430.0,42.5,1.5166667,1372.0
ad,canillo,Canillo,2.0,3292.0,42.5666667,1.6,1885.0
ad,encamp,Encamp,3.0,11224.0,42.5333333,1.5833333,1579.5
ad,la massana,La Massana,4.0,7211.0,42.55,1.5166667,1505.5
ad,les escaldes,Les Escaldes,8.0,15854.0,42.5,1.5333333,1372.0
ad,ordino,Ordino,5.0,2553.0,42.55,1.5333333,1505.5
ad,sant julia de loria,Sant Julià de Lòria,6.0,8020.0,42.46666670000001,1.5,1618.5
ae,abu dhabi,Abu Dhabi,1.0,603687.0,24.466667,54.36666700000001,7.0
ae,dubai,Dubai,3.0,1137376.0,25.258172,55.304717,4.0
ae,sharjah,Sharjah,6.0,543942.0,25.35731,55.40330400000001,5.0
af,acin,Acin,18.0,15098.0,34.082481,70.668152,1354.0
af,anar darreh,Anar Darreh,6.0,10023.0,32.758697999999995,61.653969,822.5
af,andarab,Andarab,3.0,27034.0,35.633484,69.260195,1600.0
af,asadabad,Asadabad,34.0,48400.0,34.873113000000004,71.14697,884.0
af,asmar,Asmar,34.0,15708.0,35.033328000000004,71.358087,1092.0
af,aybak,Aybak,32.0,47877.0,36.26468,68.015512,973.0
af,azrow,Azrow,17.0,12526.0,34.173553000000005,69.645728,2591.0
af,baglan,Baglan,3.0,108481.0,36.130684,68.708286,531.0
af,bagrami,Bagrami,13.0,30256.0,34.493761,69.274274,1791.0
af,baraki barak,Baraki Barak,17.0,22305.0,33.9675,68.948611,1986.0
af,cah ab,Cah Ab,26.0,23424.0,37.397734,69.814644,1037.0
af,carikar,Carikar,40.0,53693.0,35.016585,69.174011,1526.0
af,ciras,Ciras,33.0,12778.0,35.416737,65.982341,3262.0
af,dawlatabad,Dawlatabad,7.0,13603.0,36.432589,64.920713,419.0
af,dawlatabad,Dawlatabad,30.0,17674.0,36.98782,66.82066,312.0
af,deh rawud,Deh Rawud,39.0,25683.0,32.624131,65.459659,1139.0
af,eskasem,Eskasem,1.0,12120.0,36.706932,71.570658,2924.0
af,farah,Farah,6.0,43574.0,32.374508,62.116383,658.0
af,gardan diwal,Gardan Diwal,27.0,6815.0,34.508977,68.260739,3122.5
af,gardez,Gardez,36.0,103732.0,33.597439,69.225922,2320.0
af,gazni,Gazni,8.0,143049.0,33.550833000000004,68.4225,2196.0
af,geresk,Geresk,10.0,43638.0,31.820894,64.570048,826.0
af,herat,Herat,11.0,272880.0,34.348167,62.199673,930.0
af,jalalabad,Jalalabad,18.0,200389.0,34.426468,70.45153,574.0
af,jurm,Jurm,1.0,12121.0,36.864768,70.83420699999998,1580.5
af,kabul,Kabul,13.0,3043589.0,34.516667,69.18333299999999,1798.0
af,kholm,Kholm,30.0,64954.0,36.697362,67.698255,481.0
af,khowst,Khowst,37.0,96246.0,33.339512,69.92041,1178.0
af,kuhestan,Kuhestan,11.0,12087.0,34.653889,61.197778,736.0
af,kusk,Kusk,11.0,16952.0,33.29565,61.952206,1124.0
af,lar gerd,Lar Gerd,33.0,11635.0,35.48936099999999,66.664088,1864.0
af,mehtar lam,Mehtar Lam,35.0,17350.0,34.671389000000005,70.20944399999999,769.5
af,mirabad,Mirabad,19.0,14160.0,30.436244,61.838304,525.0
af,nahrin,Nahrin,3.0,22389.0,36.064904,69.13343,1248.0
af,nuristan,Nuristan,38.0,17072.0,34.95,70.4,1130.5
af,orgun,Orgun,29.0,10665.0,32.901111,69.152798,2298.0
af,pagman,Pagman,13.0,49173.0,34.5875,68.953333,2613.5
af,panjab,Panjab,5.0,13471.0,34.387949,67.023273,2844.0
af,qandahar,Qandahar,23.0,391230.0,31.613323,65.710126,997.0
af,qarchi gak,Qarchi Gak,30.0,8942.0,37.039988,66.788912,306.0
af,qarqin,Qarqin,31.0,15023.0,37.404464,66.074375,263.0
af,qunduz,Qunduz,24.0,161943.0,36.728955,68.857001,395.5
af,rostaq,Rostaq,26.0,25644.0,37.126035,69.83045,1277.5
af,rudbar,Rudbar,19.0,11034.0,30.15,62.6,571.0
af,sahrak,Sahrak,9.0,15967.0,34.107375,64.305199,2420.0
af,sangin,Sangin,10.0,13579.0,32.072752,64.835903,907.5
af,sar-e pul,Sar-e Pul,33.0,52138.0,36.215443,65.932487,633.0
af,sharan,Sharan,29.0,7368.0,33.146667,68.791667,2164.0
af,shibarghan,Shibarghan,31.0,55658.0,36.667567,65.752904,351.5
af,sindand,Sindand,11.0,29273.0,33.302944000000004,62.1474,1072.0
af,tagab,Tagab,14.0,6400.0,34.855007,69.64917,1343.0
af,taloqan,Taloqan,26.0,64275.0,36.734133,69.533559,791.0
af,taywarah,Taywarah,9.0,14398.0,33.521176000000004,64.42115600000001,2215.0
af,tir pol,Tir Pol,11.0,6979.0,34.594307,61.268951,764.0
af,tokzar,Tokzar,33.0,12021.0,35.94830800000001,66.42132,1252.5
af,uruzgan,Uruzgan,39.0,13400.0,32.927751,66.63253399999999,2053.0
af,zaranj,Zaranj,19.0,33894.0,30.966667,61.88333299999999,485.0
ag,all saints,All Saints,6.0,2526.0,17.05,-61.8,69.0
ag,carlisle,Carlisle,3.0,831.0,17.1333333,-61.8,31.0
ag,codrington,Codrington,1.0,682.0,17.6333333,-61.8333333,9.0
ag,freetown,Freetown,8.0,623.0,17.05,-61.7,8.0
ag,liberta,Liberta,6.0,1668.0,17.033333300000002,-61.7833333,33.0
ag,old road,Old Road,5.0,623.0,17.0166667,-61.8333333,80.5
ag,parham,Parham,7.0,969.0,17.0833333,-61.7666667,37.0
ag,swetes,Swetes,6.0,727.0,17.05,-61.8,69.0
ai,the valley,The Valley,0.0,1379.0,18.2166667,-63.05,20.0
al,bajram curri,Bajram Curri,47.0,7967.0,42.3572222,20.0730556,470.0
al,ballsh,Ballsh,44.0,10361.0,40.5988889,19.7347222,250.0
al,berat,Berat,40.0,47606.0,40.7058333,19.9522222,150.0
al,bilisht,Bilisht,46.0,7114.0,40.6275,20.99,884.5
al,bulqize,Bulqizë,41.0,11212.0,41.4916667,20.2219444,1330.0
al,burrel,Burrel,41.0,15539.0,41.6102778,20.0088889,231.5
al,cerrik,Cërrik,43.0,14269.0,41.0316667,19.9758333,84.0
al,corovode,Çorovodë,40.0,14046.0,40.5041667,20.2272222,621.5
al,delvine,Delvinë,51.0,3916.0,39.95111110000001,20.097777800000006,285.5
al,durres,Durrës,42.0,122034.0,41.3230556,19.4413889,0.0
al,elbasan,Elbasan,43.0,100903.0,41.1125,20.0822222,113.0
al,erseke,Ersekë,46.0,7890.0,40.3377778,20.6788889,1033.0
al,fier,Fier,44.0,59719.0,40.7238889,19.5561111,14.0
al,fierze,Fierzë,47.0,742.0,42.2647222,20.0269444,339.5
al,fierze,Fierzë,49.0,742.0,42.2605556,20.0169444,339.5
al,fushe-arrez,Fushë-Arrëz,49.0,2438.0,42.0622222,20.0166667,653.0
al,fushe-kruje,Fushë-Krujë,42.0,10458.0,41.4783333,19.7177778,35.0
al,gjirokaster,Gjirokastër,45.0,23437.0,40.0758333,20.1388889,329.5
al,gramsh,Gramsh,43.0,11556.0,40.8697222,20.1844444,267.0
al,himare,Himarë,51.0,4596.0,40.1016667,19.7447222,0.0
al,kamze,Kamzë,50.0,11026.0,41.3816667,19.7602778,64.0
al,kavaje,Kavajë,50.0,29354.0,41.1855556,19.5569444,20.0
al,kelcyre,Këlcyrë,45.0,2486.0,40.31305560000001,20.1894444,271.0
al,kerrabe,Kërrabë,50.0,1177.0,41.2155556,19.9713889,568.5
al,klos,Klos,41.0,683.0,41.4844444,20.1080556,427.0
al,konispol,Konispol,51.0,1349.0,39.6588889,20.1813889,356.5
al,koplik,Koplik,49.0,4078.0,42.2136111,19.4363889,86.5
al,korce,Korçë,46.0,58259.0,40.6186111,20.7808333,877.0
al,kraste,Krastë,41.0,1168.0,41.4225,20.205,1027.0
al,kruje,Krujë,42.0,21286.0,41.5091667,19.792777800000003,710.5
al,kucove,Kuçovë,40.0,18166.0,40.8002778,19.9166667,125.0
al,kukes,Kukës,47.0,17972.0,42.0769444,20.4219444,338.0
al,kurbnesh,Kurbnesh,48.0,1429.0,41.7797222,20.0836111,1208.5
al,lac,Laç,48.0,24825.0,41.6355556,19.7130556,233.5
al,leskovik,Leskovik,46.0,2655.0,40.15138889999999,20.5972222,848.5
al,lezhe,Lezhë,48.0,18695.0,41.7836111,19.6436111,1.0
al,libohove,Libohovë,45.0,3651.0,40.0311111,20.2630556,526.5
al,librazhd,Librazhd,43.0,12691.0,41.1794444,20.315,336.0
al,lushnje,Lushnjë,44.0,41423.0,40.9419444,19.705,10.0
al,maliq,Maliq,46.0,3735.0,40.7058333,20.6997222,1011.5
al,mamurras,Mamurras,48.0,8282.0,41.5775,19.6922222,24.0
al,memaliaj,Memaliaj,45.0,4951.0,40.3458333,19.9791667,175.0
al,milot,Milot,48.0,2157.0,41.6802778,19.7244444,149.5
al,orikum,Orikum,51.0,2604.0,40.3252778,19.4713889,25.0
al,patos,Patos,44.0,22679.0,40.6833333,19.6194444,34.5
al,peqin,Peqin,43.0,7513.0,41.04611110000001,19.7511111,184.0
al,permet,Përmet,45.0,10686.0,40.23361110000001,20.3516667,337.0
al,perrenjas,Përrenjas,43.0,4015.0,41.0730556,20.5488889,610.0
al,peshkopi,Peshkopi,41.0,15261.0,41.685,20.4288889,782.5
al,pogradec,Pogradec,46.0,25758.0,40.9025,20.6525,847.0
al,polican,Poliçan,40.0,10663.0,40.6122222,20.0980556,377.0
al,puke,Pukë,49.0,6495.0,42.0444444,19.8997222,518.0
al,roskovec,Roskovec,44.0,6657.0,40.7375,19.7022222,20.0
al,rreshen,Rrëshen,48.0,10064.0,41.7675,19.8755556,134.0
al,rrogozhine,Rrogozhinë,50.0,5620.0,41.0763889,19.6652778,11.0
al,rubik,Rubik,48.0,2332.0,41.77444439999999,19.7861111,209.5
al,sarande,Sarandë,51.0,15147.0,39.87555560000001,20.0052778,33.0
al,selenice,Selenicë,51.0,6912.0,40.53055560000001,19.6358333,170.0
al,shengjin,Shëngjin,48.0,2698.0,41.8136111,19.5938889,1.0
al,shijak,Shijak,42.0,14138.0,41.3455556,19.5672222,20.0
al,shkoder,Shkodër,49.0,89102.0,42.0675,19.5130556,13.0
al,tepelene,Tepelenë,45.0,11955.0,40.2958333,20.0191667,201.5
al,tirana,Tirana,50.0,374801.0,41.3275,19.8188889,123.0
al,ulze,Ulzë,41.0,600.0,41.6827778,19.8933333,148.5
al,vlore,Vlorë,51.0,89528.0,40.46666670000001,19.4897222,2.0
al,vore,Vorë,50.0,4973.0,41.3908333,19.655,75.0
am,abovyan,Abovyan,2.0,1379.0,40.0488889,44.5475,1010.0
am,abovyan,Abovyan,5.0,35677.0,40.2691667,44.6244444,1376.0
am,agarakadzor,Agarakadzor,10.0,1195.0,39.7363889,45.3455556,1221.0
am,agarak,Agarak,1.0,1575.0,40.3077778,44.2847222,1210.5
am,agarak,Agarak,6.0,1278.0,41.0105556,44.4675,1479.0
am,agarak,Agarak,8.0,4707.0,39.2038889,46.5472222,785.0
am,aghavnadzor,Aghavnadzor,5.0,1252.0,40.5841667,44.6913889,2047.5
am,aghavnadzor,Aghavnadzor,10.0,1925.0,39.7836111,45.22805560000001,1415.5
am,aghavnatun,Aghavnatun,1.0,2913.0,40.23361110000001,44.2513889,929.0
am,akhuryan,Akhuryan,7.0,7672.0,40.7813889,43.8963889,1533.0
am,aknalich,Aknalich,3.0,2654.0,40.1430556,44.1483333,871.0
am,aknashen,Aknashen,3.0,1362.0,40.0958333,44.28611110000001,840.0
am,alaverdi,Alaverdi,6.0,13186.0,41.1305556,44.6519444,1507.0
am,amasia,Amasia,7.0,1675.0,40.9466667,43.7813889,1849.5
am,amberd,Amberd,1.0,1267.0,40.2416667,44.2727778,929.0
am,anushavan,Anushavan,7.0,1532.0,40.64194439999999,43.9822222,1742.0
am,apaga,Apaga,3.0,1634.0,40.0961111,44.2511111,840.0
am,aparan,Aparan,1.0,5670.0,40.5961111,44.3536111,1966.0
am,aragats,Aragats,1.0,2952.0,40.3330556,43.6580556,1276.0
am,aragats,Aragats,3.0,5092.0,40.2183333,44.2327778,938.0
am,aragyukh,Aragyukh,5.0,999.0,40.4025,44.54361110000001,1593.0
am,aramus,Aramus,5.0,3214.0,40.2511111,44.66305560000001,1435.0
am,arapi,Arapi,7.0,1738.0,40.7797222,43.8005556,1492.0
am,ararat,Ararat,2.0,6554.0,39.8094444,44.7144444,809.0
am,arazap,Arazap,3.0,1373.0,40.0427778,44.1458333,845.0
am,archis,Archis,9.0,1235.0,41.1641667,44.8725,762.0
am,areni,Areni,10.0,1718.0,39.7208333,45.1838889,1122.5
am,arevabuyr,Arevabuyr,2.0,1041.0,40.03611110000001,44.4688889,836.5
am,arevashat,Arevashat,3.0,1403.0,40.1416667,44.3708333,858.5
am,arevashogh,Arevashogh,6.0,2435.0,40.8613889,44.2727778,1661.0
am,arevik,Arevik,3.0,2455.0,40.10055560000001,44.0969444,850.0
am,arevik,Arevik,7.0,1522.0,40.7361111,43.8927778,1532.0
am,arevshat,Arevshat,2.0,2089.0,40.0391667,44.5416667,898.0
am,arevshat,Arevshat,7.0,1623.0,40.6486111,44.0444444,1997.0
am,argavand,Argavand,2.0,1703.0,40.1580556,44.44,886.0
am,argavand,Argavand,3.0,2047.0,40.0608333,44.0952778,852.0
am,argel,Argel,5.0,2528.0,40.3794444,44.5994444,1503.0
am,armash,Armash,10.0,2434.0,39.7666667,44.8083333,859.5
am,armavir,Armavir,3.0,2752.0,40.0897222,44.0483333,855.0
am,arshaluys,Arshaluys,3.0,3808.0,40.1688889,44.2141667,881.0
am,artashat,Artashat,2.0,20562.0,39.9538889,44.5505556,822.5
am,arteni,Arteni,1.0,3086.0,40.2983333,43.7541667,1211.0
am,artimet,Artimet,3.0,1501.0,40.15138889999999,44.2663889,858.0
am,artsvaberd,Artsvaberd,9.0,3193.0,40.83361110000001,45.4711111,1206.5
am,artsvanist,Artsvanist,4.0,2819.0,40.1544444,45.5022222,2000.0
am,arzakan,Arzakan,5.0,2660.0,40.4494444,44.6063889,1513.5
am,arzni,Arzni,5.0,2244.0,40.2963889,44.5958333,1409.5
am,ashnak,Ashnak,1.0,1131.0,40.3275,43.9166667,1353.0
am,ashtarak,Ashtarak,1.0,18779.0,40.3016667,44.3591667,1197.5
am,astghadzor,Astghadzor,4.0,3520.0,40.1238889,45.3566667,2164.5
am,avshar,Avshar,2.0,4215.0,39.8405556,44.6836111,837.0
am,aygavan,Aygavan,2.0,3758.0,39.8647222,44.6702778,837.0
am,aygedzor,Aygedzor,8.0,2535.0,39.4627778,46.4152778,1386.5
am,aygehovit,Aygehovit,9.0,2888.0,40.9744444,45.2519444,809.5
am,aygek,Aygek,3.0,1095.0,40.1886111,44.3833333,947.0
am,aygepat,Aygepat,2.0,1349.0,39.95,44.6,848.0
am,aygeshat,Aygeshat,1.0,1358.0,40.23555560000001,44.28666670000001,929.0
am,aygeshat,Aygeshat,3.0,1606.0,40.0666667,44.0666667,857.0
am,aygestan,Aygestan,2.0,2431.0,40.0030556,44.5575,898.0
am,aygezard,Aygezard,2.0,3192.0,39.9458333,44.6088889,848.0
am,aygut,Aygut,4.0,997.0,40.6841667,45.17305560000001,1622.0
am,ayrum,Ayrum,6.0,2174.0,41.195,44.8925,582.0
am,ayrum,Ayrum,9.0,2174.0,41.1716667,44.8191667,845.5
am,azatamut,Azatamut,9.0,1850.0,40.9758333,45.1980556,605.0
am,azatan,Azatan,7.0,4448.0,40.7238889,43.82055560000001,1487.0
am,azatavan,Azatavan,2.0,2886.0,39.9833333,44.5,839.0
am,azatavan,Azatavan,3.0,2886.0,40.1333333,44.0666667,866.5
am,baghramyan,Baghramyan,3.0,1690.0,40.1908333,43.8494444,1043.0
am,bagratashen,Bagratashen,9.0,3024.0,41.2458333,44.8211111,477.5
am,balahovit,Balahovit,5.0,2982.0,40.2536111,44.6038889,1376.0
am,bambakashat,Bambakashat,3.0,3089.0,40.1144444,44.0122222,862.0
am,bardzrashen,Bardzrashen,2.0,1273.0,40.0852778,44.5786111,1151.5
am,bazum,Bazum,6.0,1114.0,40.86805560000001,44.44555560000001,1506.0
am,berdavan,Berdavan,9.0,3150.0,41.2027778,45.0033333,775.5
am,berd,Berd,9.0,8374.0,40.8808333,45.3916667,971.0
am,brnakot,Brnakot,8.0,1912.0,39.4969444,45.9730556,1744.5
am,brun,Brun,8.0,1028.0,39.5338889,46.30305560000001,1729.0
am,buzhakan,Buzhakan,5.0,1678.0,40.4552778,44.5205556,1827.0
am,byurakan,Byurakan,1.0,3902.0,40.3413889,44.2736111,1637.0
am,byuravan,Byuravan,2.0,1228.0,40.0161111,44.5186111,868.0
am,byureghavan,Byureghavan,5.0,6972.0,40.3147222,44.5936111,1409.5
am,chambarak,Chambarak,4.0,6153.0,40.5952778,45.3475,1881.0
am,chochkan,Chochkan,6.0,1740.0,41.18611110000001,44.83138889999999,845.5
am,dalar,Dalar,2.0,2504.0,39.9669444,44.5363889,839.0
am,dalarik,Dalarik,3.0,3080.0,40.2183333,43.8602778,1033.0
am,darakert,Darakert,2.0,2325.0,40.1058333,44.4138889,837.0
am,darpas,Darpas,6.0,1785.0,40.8380556,44.4233333,1506.0
am,dashtavan,Dashtavan,2.0,1762.0,40.1016667,44.390555600000006,837.0
am,ddmashen,Ddmashen,4.0,2157.0,40.57194439999999,44.8122222,1787.0
am,dilijan,Dilijan,9.0,13480.0,40.7408333,44.8630556,1444.0
am,dimitrov,Dimitrov,2.0,1212.0,40.00805560000001,44.4880556,836.5
am,doghs,Doghs,1.0,1186.0,40.2227778,44.2716667,929.0
am,drakhtik,Drakhtik,4.0,1016.0,40.5688889,45.2319444,2090.5
am,dsegh,Dsegh,6.0,2484.0,40.9633333,44.6516667,1178.5
am,dvin,Dvin,2.0,2795.0,40.02,44.5852778,971.0
am,dzitankov,Dzitankov,7.0,1162.0,40.515555600000006,43.8133333,1787.5
am,dzoraghbyur,Dzoraghbyur,5.0,2011.0,40.205,44.6430556,1602.0
am,dzoragyukh,Dzoragyukh,4.0,3570.0,40.1752778,45.175,2031.0
am,fantan,Fantan,5.0,1019.0,40.3941667,44.685,1827.0
am,fioletovo,Fioletovo,6.0,1264.0,40.7247222,44.71388889999999,1905.0
am,gagarin,Gagarin,4.0,1305.0,40.5369444,44.8577778,1911.0
am,gandzak,Gandzak,4.0,3841.0,40.3147222,45.1113889,2026.5
am,garni,Garni,5.0,6827.0,40.1194444,44.7230556,1455.5
am,gavar,Gavar,4.0,21681.0,40.3588889,45.1266667,1974.0
am,gay,Gay,2.0,3309.0,40.0838889,44.30555560000001,837.0
am,geghamasar,Geghamasar,4.0,1060.0,40.3116667,45.68,2099.0
am,geghamavan,Geghamavan,4.0,1597.0,40.5619444,44.8827778,1876.5
am,geghanist,Geghanist,2.0,2409.0,40.1497222,44.4344444,886.0
am,getahovit,Getahovit,9.0,2005.0,40.8958333,45.1313889,735.5
am,getashen,Getashen,3.0,2114.0,40.0433333,43.9447222,891.0
am,getazat,Getazat,2.0,1947.0,40.03805560000001,44.5638889,898.0
am,ghukasavan,Ghukasavan,2.0,2113.0,40.1261111,44.4177778,886.0
am,gladzor,Gladzor,10.0,2080.0,39.7783333,45.3477778,1332.5
am,gogaran,Gogaran,6.0,1088.0,40.8955556,44.1991667,1954.0
am,goris,Goris,8.0,20379.0,39.5077778,46.3386111,1610.0
am,gosh,Gosh,9.0,994.0,40.7225,45.0033333,1291.5
am,griboyedov,Griboyedov,3.0,1879.0,40.1130556,44.2716667,840.0
am,gyulagarak,Gyulagarak,6.0,2109.0,40.9697222,44.4713889,1365.5
am,gyumri,Gyumri,7.0,148383.0,40.7894444,43.8475,1527.0
am,haghartsin,Haghartsin,9.0,3370.0,40.7780556,44.9625,1173.5
am,hayanist,Hayanist,3.0,2031.0,40.1197222,44.3775,837.0
am,haykashen,Haykashen,3.0,1140.0,40.0727778,44.3069444,835.0
am,haykavan,Haykavan,7.0,1201.0,40.7558333,43.77,1529.0
am,hnaberd,Hnaberd,1.0,1817.0,40.6427778,44.1444444,2096.0
am,hoktember,Hoktember,3.0,5348.0,40.1361111,44.0138889,863.0
am,horom,Horom,7.0,1893.0,40.65416670000001,43.8822222,1617.0
am,hovtashat,Hovtashat,2.0,3472.0,40.1019444,44.3427778,833.5
am,hovtashen,Hovtashen,2.0,1134.0,40.02444439999999,44.45,825.0
am,hrazdan,Hrazdan,5.0,40796.0,40.5016667,44.7547222,1751.0
am,ijevan,Ijevan,9.0,14737.0,40.87555560000001,45.1491667,735.5
am,janfida,Janfida,3.0,2986.0,40.04555560000001,44.0208333,864.0
am,jermuk,Jermuk,10.0,4582.0,39.84166670000001,45.6722222,2313.0
am,jrahovit,Jrahovit,2.0,1032.0,40.0452778,44.47361110000001,860.0
am,jrashen,Jrashen,6.0,3078.0,40.7875,44.1972222,1923.5
am,jrashen,Jrashen,11.0,1696.0,40.0547222,44.5133333,958.0
am,kamaris,Kamaris,5.0,2064.0,40.2358333,44.6938889,1581.0
am,kamo,Kamo,7.0,1340.0,40.828055600000006,43.9483333,1600.0
am,kanakeravan,Kanakeravan,11.0,2950.0,40.2472222,44.53666670000001,1197.5
am,kapan,Kapan,8.0,33161.0,39.20111110000001,46.415,1060.0
am,kaputan,Kaputan,5.0,1252.0,40.3244444,44.6938889,1699.0
am,karbi,Karbi,1.0,3521.0,40.3338889,44.3777778,1424.0
am,karchaghbyur,Karchaghbyur,4.0,2274.0,40.1638889,45.5722222,2068.0
am,kasakh,Kasakh,1.0,4247.0,40.5333333,44.4166667,1857.5
am,khashtarak,Khashtarak,9.0,1728.0,40.9386111,45.1797222,887.0
am,khndzoresk,Khndzoresk,8.0,1940.0,39.5122222,46.4336111,1421.0
am,kosh,Kosh,1.0,2581.0,40.3072222,44.16,1364.5
am,lanjaghbyur,Lanjaghbyur,4.0,2097.0,40.273055600000006,45.1444444,2091.0
am,lchashen,Lchashen,4.0,4182.0,40.5202778,44.9308333,1931.0
am,lenughi,Lenughi,3.0,1499.0,40.1238889,43.9652778,889.0
am,lernakert,Lernakert,7.0,1306.0,40.5669444,43.93611110000001,1987.5
am,lernanist,Lernanist,5.0,2511.0,40.4675,44.79805560000001,1965.5
am,lernantsk,Lernantsk,6.0,1192.0,40.79555560000001,44.2783333,1607.0
am,lernapat,Lernapat,6.0,1710.0,40.82,44.3972222,1625.0
am,lernavan,Lernavan,6.0,1517.0,40.7883333,44.1844444,1923.5
am,lorut,Lorut,6.0,1101.0,40.9388889,44.7725,1550.5
am,lukashin,Lukashin,1.0,2197.0,40.1758333,44.0186111,875.0
am,madina,Madina,4.0,1024.0,40.0802778,45.2511111,2244.5
am,maisyan,Maisyan,7.0,1521.0,40.85305560000001,43.82944439999999,1660.0
am,malishka,Malishka,10.0,4174.0,39.7369444,45.3875,1235.5
am,maralik,Maralik,7.0,4959.0,40.5722222,43.8669444,1848.0
am,margahovit,Margahovit,6.0,3308.0,40.7380556,44.6875,1739.0
am,margara,Margara,3.0,1360.0,40.0336111,44.1738889,843.0
am,marmarashen,Marmarashen,2.0,2946.0,40.0575,44.4711111,860.0
am,marmashen,Marmashen,7.0,1644.0,40.8375,43.7719444,1656.5
am,martuni,Martuni,4.0,11037.0,40.1447222,45.3063889,1925.0
am,masis,Masis,2.0,18911.0,40.0138889,44.4858333,836.5
am,mayakovski,Mayakovski,5.0,1727.0,40.2522222,44.6383333,1435.0
am,meghradzor,Meghradzor,5.0,2659.0,40.6147222,44.6522222,1896.0
am,meghrashen,Meghrashen,7.0,1107.0,40.6758333,43.9486111,1637.0
am,meghri,Meghri,8.0,4540.0,38.9022222,46.2383333,860.0
am,merdzavan,Merdzavan,3.0,2702.0,40.1816667,44.3991667,947.0
am,metsamor,Metsamor,3.0,8789.0,40.0713889,44.2891667,838.0
am,metsavan,Metsavan,6.0,4767.0,41.2016667,44.2288889,1559.0
am,mets masrik,Mets Masrik,4.0,2570.0,40.2186111,45.7694444,1957.0
am,mets parni,Mets Parni,6.0,1934.0,40.8372222,44.1091667,1711.0
am,mosesgegh,Mosesgegh,9.0,1964.0,40.9063889,45.4913889,1067.0
am,mrganush,Mrganush,2.0,1032.0,40.028611100000006,44.5586111,898.0
am,mrgashat,Mrgashat,3.0,4961.0,40.1297222,44.07055560000001,866.5
am,mrgashen,Mrgashen,5.0,1623.0,40.285,44.5422222,1319.0
am,mrgavan,Mrgavan,2.0,1713.0,39.966111100000006,44.5333333,839.0
am,mrgavet,Mrgavet,2.0,2131.0,40.0283333,44.4827778,836.5
am,musaler,Musaler,3.0,2323.0,40.1544444,44.3777778,857.0
am,musayelyan,Musayelyan,7.0,1499.0,40.7652778,43.9908333,1638.5
am,myasnikyan,Myasnikyan,3.0,3458.0,40.1775,43.9063889,936.0
am,nalbandyan,Nalbandyan,3.0,4019.0,40.0677778,43.98555560000001,872.0
am,navur,Navur,9.0,1227.0,40.8613889,45.3175,1582.0
am,nizami,Nizami,2.0,1060.0,40.0913889,44.40416670000001,837.0
am,norakert,Norakert,1.0,2485.0,40.1922222,44.3466667,925.0
am,noramarg,Noramarg,2.0,1811.0,40.0236111,44.4244444,825.0
am,nor armavir,Nor Armavir,3.0,1597.0,40.0866667,43.99,889.0
am,norashen,Norashen,2.0,3049.0,40.0041667,44.5947222,971.0
am,norashen,Norashen,6.0,1386.0,41.18805560000001,44.3272222,1582.0
am,noratus,Noratus,4.0,5426.0,40.3822222,45.1783333,1918.0
am,nor geghi,Nor Geghi,5.0,4896.0,40.3211111,44.5797222,1363.0
am,nor gyukh,Nor Gyukh,5.0,1462.0,40.2666667,44.6563889,1435.0
am,nor yerznka,Nor Yerznka,5.0,1459.0,40.3133333,44.4047222,1295.5
am,noyakert,Noyakert,2.0,1751.0,39.8166667,44.6669444,813.0
am,noyemberyan,Noyemberyan,9.0,5119.0,41.1725,44.9936111,844.0
am,nshavan,Nshavan,2.0,1916.0,40.02638889999999,44.5252778,868.0
am,odzun,Odzun,6.0,4524.0,41.0538889,44.6113889,1100.0
am,oshakan,Oshakan,1.0,4768.0,40.2705556,44.2691667,1031.0
am,paravakar,Paravakar,9.0,1637.0,40.9805556,45.3991667,697.0
am,pemzashen,Pemzashen,7.0,2436.0,40.5933333,43.94,1755.0
am,pokr mantash,Pokr Mantash,7.0,1838.0,40.65,44.05,1997.0
am,proshyan,Proshyan,5.0,4333.0,40.2480556,44.415,1057.5
am,pshatavan,Pshatavan,3.0,2159.0,40.04055560000001,44.0675,858.0
am,ptghni,Ptghni,5.0,1231.0,40.2566667,44.585,1376.0
am,ranchpar,Ranchpar,2.0,989.0,40.0252778,44.3702778,831.0
am,rind,Rind,10.0,1368.0,39.7597222,45.18,1336.5
am,samaghar,Samaghar,3.0,2343.0,40.1852778,44.2422222,881.0
am,saramech,Saramech,6.0,1111.0,40.7725,44.2191667,1922.0
am,saratak,Saratak,7.0,1115.0,40.67,43.8663889,1559.0
am,sarigyukh,Sarigyukh,9.0,1096.0,41.0563889,45.1458333,688.5
am,sarukhan,Sarukhan,4.0,6173.0,40.2891667,45.1341667,2091.0
am,sasunik,Sasunik,1.0,1959.0,40.2472222,44.3380556,1023.5
am,sevan,Sevan,4.0,17083.0,40.555,44.9536111,2025.0
am,shaghat,Shaghat,8.0,1011.0,39.5616667,45.9122222,1859.5
am,shahumyan,Shahumyan,2.0,3905.0,39.9308333,44.5783333,822.5
am,shahumyan,Shahumyan,6.0,1843.0,40.7883333,44.5316667,1815.0
am,shatin,Shatin,10.0,1671.0,39.8333333,45.3016667,1391.5
am,shenavan,Shenavan,1.0,1587.0,40.4861111,44.3825,1865.0
am,shenavan,Shenavan,3.0,1757.0,40.05,43.9333333,891.0
am,shinuhayr,Shinuhayr,8.0,2206.0,39.4341667,46.3155556,1541.0
am,shirakamut,Shirakamut,6.0,2008.0,40.86055560000001,44.1527778,1675.0
am,shirak,Shirak,7.0,1007.0,40.8480556,43.9213889,1727.0
am,shnogh,Shnogh,6.0,2872.0,41.1477778,44.8377778,762.0
am,sisavan,Sisavan,2.0,1793.0,39.9,44.6666667,872.0
am,sisian,Sisian,8.0,15208.0,39.4627778,45.9730556,1744.5
am,sis,Sis,2.0,1135.0,40.0586111,44.3863889,829.0
am,solak,Solak,5.0,2295.0,40.4636111,44.70861110000001,1761.0
am,sovetakan,Sovetakan,3.0,1613.0,40.1133333,44.0552778,855.0
am,spandaryan,Spandaryan,7.0,1226.0,40.665,44.01888889999999,1888.5
am,spitak,Spitak,6.0,15063.0,40.79555560000001,44.2783333,1607.0
am,surenavan,Surenavan,10.0,2241.0,39.75,44.8,859.5
am,talin,Talin,1.0,4945.0,40.33694439999999,43.8588889,1502.0
am,tandzut,Tandzut,3.0,1816.0,40.0772222,44.0886111,852.0
am,taronik,Taronik,3.0,1874.0,40.13305560000001,44.1991667,855.0
am,tashir,Tashir,6.0,7318.0,41.1244444,44.28194439999999,1511.0
am,tazagyukh,Tazagyukh,4.0,2248.0,40.1416667,45.1913889,2102.5
am,tegh,Tegh,8.0,2120.0,39.5547222,46.4758333,1363.5
am,tsaghkaber,Tsaghkaber,6.0,1207.0,40.7986111,44.1072222,1770.5
am,tsaghkadzor,Tsaghkadzor,5.0,1408.0,40.5386111,44.7113889,1827.0
am,tsaghkahovit,Tsaghkahovit,1.0,1551.0,40.6361111,44.2230556,2087.0
am,tsiatsan,Tsiatsan,3.0,1050.0,40.1869444,44.2666667,889.0
am,tsovagyugh,Tsovagyugh,4.0,3857.0,40.63305560000001,44.9522222,2144.5
am,tsovak,Tsovak,4.0,2531.0,40.1819444,45.635,1923.0
am,tsovazard,Tsovazard,4.0,1949.0,40.4769444,45.0375,2024.0
am,tsovinar,Tsovinar,4.0,3968.0,40.1608333,45.4538889,1956.0
am,tumanyan,Tumanyan,6.0,1693.0,40.9633333,44.6516667,1178.5
am,urut,Urut,6.0,1102.0,41.0711111,44.3969444,1475.0
am,ushi,Ushi,1.0,1276.0,40.3536111,44.3686111,1432.0
am,vagharshapat,Vagharshapat,3.0,49514.0,40.1727778,44.2925,892.0
am,vaghashen,Vaghashen,4.0,3235.0,40.1377778,45.3291667,1925.0
am,vahagni,Vahagni,6.0,1184.0,40.9080556,44.6069444,1169.0
am,vahan,Vahan,4.0,1153.0,40.57,45.3955556,1991.5
am,vanadzor,Vanadzor,6.0,101099.0,40.8127778,44.4883333,1399.5
am,vardablur,Vardablur,6.0,1297.0,40.95,44.46666670000001,1512.0
am,vardadzor,Vardadzor,11.0,2095.0,40.1916667,45.1875,2031.0
am,vardenik,Vardenik,4.0,7709.0,40.135,45.4363889,1956.0
am,vardenis,Vardenis,4.0,11382.0,40.18055560000001,45.7283333,1932.0
am,varser,Varser,4.0,1614.0,40.5561111,44.91111110000001,1876.5
am,vedi,Vedi,2.0,12192.0,39.9105556,44.7277778,942.0
am,verin artashat,Verin Artashat,2.0,3931.0,40.00055560000001,44.585,971.0
am,verin dvin,Verin Dvin,2.0,1853.0,40.0252778,44.5908333,971.0
am,verin getashen,Verin Getashen,4.0,4173.0,40.1327778,45.24861110000001,1977.5
am,verishen,Verishen,8.0,2114.0,39.5358333,46.3119444,1729.0
am,vernashen,Vernashen,10.0,1162.0,39.7938889,45.3633333,1813.0
am,voskehask,Voskehask,7.0,1803.0,40.7383333,43.7758333,1472.0
am,voskehat,Voskehat,3.0,2181.0,40.1413889,44.3291667,858.0
am,voskevan,Voskevan,9.0,1287.0,41.1191667,45.0652778,920.0
am,voskevaz,Voskevaz,1.0,3789.0,40.2797222,44.295,1039.0
am,vostan,Vostan,2.0,2925.0,39.9588889,44.5591667,851.0
am,yeghegnavan,Yeghegnavan,2.0,1221.0,39.8277778,44.6372222,812.0
am,yeghegnut,Yeghegnut,3.0,1746.0,40.0902778,44.1625,846.0
am,yeghegnut,Yeghegnut,6.0,1154.0,40.90416670000001,44.6325,1346.0
am,yeghvard,Yeghvard,5.0,10705.0,40.3216667,44.4813889,1333.0
am,yeraskhahun,Yeraskhahun,3.0,1346.0,40.0722222,44.2158333,838.0
am,yerazgavors,Yerazgavors,7.0,1285.0,40.7,43.75,1475.0
am,yerevan,Yerevan,11.0,1093499.0,40.1811111,44.51361110000001,1094.0
am,zangakatun,Zangakatun,2.0,1130.0,39.8094444,45.0511111,1830.5
am,zaritap,Zaritap,10.0,1323.0,39.6372222,45.5086111,1592.5
am,zar,Zar,5.0,1340.0,40.2611111,44.7361111,1749.0
am,zhdanov,Zhdanov,3.0,1512.0,40.16166670000001,44.0883333,854.0
am,zorak,Zorak,2.0,1390.0,40.0925,44.39194439999999,837.0
am,zoravan,Zoravan,5.0,1167.0,40.3569444,44.523055600000006,1466.5
am,zovaber,Zovaber,4.0,1470.0,40.5736111,44.7863889,1740.0
am,zovuni,Zovuni,1.0,4484.0,40.5108333,44.4288889,1857.5
an,barber,Barber,0.0,2424.0,12.2833333,-69.0666667,35.0
an,golden rock,Golden Rock,0.0,823.0,17.4833333,-62.9833333,40.0
an,kralendijk,Kralendijk,0.0,3081.0,12.15,-68.2666667,5.0
an,lagun,Lagún,0.0,289.0,12.3166667,-69.16666670000001,0.0
an,nieuwpoort,Nieuwpoort,0.0,1937.0,12.05,-68.8166667,28.0
an,oranjestad,Oranjestad,0.0,1097.0,17.466666699999998,-62.9833333,40.0
an,rincon,Rincón,0.0,1496.0,12.233333300000002,-68.33333329999999,45.0
an,sint michiel,Sint Michiel,0.0,5138.0,12.133333300000002,-68.9833333,18.0
an,soto,Soto,0.0,1987.0,12.266666699999998,-69.1,36.0
an,the bottom,The Bottom,0.0,488.0,17.6333333,-63.25,0.0
an,westpunt,Westpunt,0.0,783.0,12.366666699999998,-69.16666670000001,0.0
an,willemstad,Willemstad,0.0,97590.0,12.1,-68.91666670000001,0.0
an,windward side,Windward Side,0.0,442.0,17.6333333,-63.2333333,0.0
ao,benguela,Benguela,1.0,151235.0,-12.578333,13.407222,0.0
ao,caala,Caála,8.0,21205.0,-12.8525,15.560556,1725.0
ao,cabinda,Cabinda,3.0,66020.0,-5.55,12.2,5.0
ao,caconda,Caconda,9.0,10551.0,-13.733332999999998,15.066667,1670.5
ao,caluquembe,Caluquembe,9.0,30305.0,-13.783333,14.683333,1691.0
ao,camabatela,Camabatela,5.0,12839.0,-8.18812,15.37495,1200.0
ao,camacupa,Camacupa,2.0,19150.0,-12.016667,17.483333,1468.0
ao,catabola,Catabola,2.0,18858.0,-12.15,17.283333,1516.0
ao,catumbela,Catumbela,1.0,16980.0,-12.431389,13.547222,72.5
ao,caxito,Caxito,19.0,28229.0,-8.58,13.664167,19.0
ao,cazaje,Cazaje,18.0,4764.0,-11.067147,20.701483,1192.0
ao,chissamba,Chissamba,2.0,7677.0,-12.166667,17.333333,1430.0
ao,huambo,Huambo,8.0,226177.0,-12.776111,15.739167000000002,1693.0
ao,kibala,Kibala,6.0,8915.0,-10.73366,14.979949,1281.0
ao,kuito,Kuito,2.0,113624.0,-12.383333,16.933332999999998,1708.0
ao,leua,Leúa,14.0,5168.0,-11.65,20.45,1235.0
ao,lobito,Lobito,1.0,207957.0,-12.319722,13.599722,74.5
ao,longonjo,Longonjo,8.0,24350.0,-12.906667,15.253333,1477.0
ao,luanda,Luanda,20.0,2776125.0,-8.836803999999997,13.233173999999998,64.0
ao,luau,Luau,14.0,18465.0,-10.707273,22.22466,1098.0
ao,lubango,Lubango,9.0,102541.0,-14.916667000000002,13.5,1782.0
ao,lucapa,Lucapa,17.0,20115.0,-8.419151,20.744655,920.0
ao,luena,Luena,14.0,21115.0,-11.783333,19.916667,1349.0
ao,lumeje,Lumeje,14.0,4972.0,-11.55,20.783333,1140.0
ao,malanje,Malanje,12.0,87047.0,-9.544722,16.345278,1118.0
ao,menongue,Menongue,4.0,19141.0,-14.661639,17.688223999999995,1368.0
ao,namibe,Namibe,13.0,80150.0,-15.196110999999998,12.152222,5.0
ao,ondjiva,Ondjiva,7.0,10169.0,-17.066667000000002,15.733332999999998,1114.5
ao,saurimo,Saurimo,18.0,40498.0,-9.66078,20.391553,1044.0
ao,soyo,Soyo,16.0,67553.0,-6.134903,12.368935,4.0
ao,sumbe,Sumbe,6.0,33278.0,-11.206048,13.843713,9.0
ao,uige,Uíge,15.0,60008.0,-7.613282000000001,15.056621,828.0
ar,alta gracia,Alta Gracia,5.0,40385.0,-31.652925,-64.428259,586.0
ar,azul,Azul,1.0,52333.0,-36.776976,-59.858539,137.0
ar,bahia blanca,Bahia Blanca,1.0,282950.0,-38.719595,-62.272432,19.0
ar,bell ville,Bell Ville,5.0,35106.0,-32.625906,-62.68873000000001,129.0
ar,campana,Campana,1.0,83175.0,-34.168742,-58.95914000000001,6.0
ar,catamarca,Catamarca,2.0,213601.0,-28.469574,-65.785239,513.0
ar,chacabuco,Chacabuco,1.0,34587.0,-34.641667,-60.473889,71.0
ar,chivilcoy,Chivilcoy,1.0,52307.0,-34.895661,-60.01666700000001,55.0
ar,comodoro rivadavia,Comodoro Rivadavia,7.0,142597.0,-45.864135,-67.496558,41.0
ar,concepcion del uruguay,Concepcion del Uruguay,8.0,72904.0,-32.482493,-58.237217,7.0
ar,concordia,Concordia,8.0,155686.0,-31.392959,-58.02089,23.5
ar,cordoba,Cordoba,5.0,1441007.0,-31.413496,-64.18105200000001,421.0
ar,corrientes,Corrientes,6.0,390481.0,-27.480596,-58.834099,45.5
ar,dolores,Dolores,1.0,25190.0,-36.313215,-57.679185,10.0
ar,eldorado,Eldorado,14.0,62823.0,-26.404841,-54.624784,208.0
ar,formosa,Formosa,9.0,248756.0,-26.177534,-58.178139,64.0
ar,general pico,General Pico,11.0,55900.0,-35.656622,-63.756815,142.0
ar,general roca,General Roca,16.0,76066.0,-39.02797,-67.573711,246.0
ar,goya,Goya,6.0,70340.0,-29.14003,-59.26256400000001,40.0
ar,gualeguaychu,Gualeguaychu,8.0,88218.0,-33.009375,-58.51722,8.5
ar,gualeguay,Gualeguay,8.0,33120.0,-33.141559,-59.309657,12.0
ar,jujuy,Jujuy,10,277150.0,-24.194565,-65.297116,1299.0
ar,junin,Junin,01,76369.0,-34.583816,-60.94331800000001,77.0
ar,la plata,La Plata,01,684318.0,-34.921454,-57.954533,22.0
ar,la rioja,La Rioja,12,178497.0,-29.411048,-66.850668,512.0
ar,libertador general san martin,Libertador General San Martin,10,49273.0,-23.806443,-64.78757399999999,456.5
ar,lincoln,Lincoln,01,24798.0,-34.866494,-61.530197,87.0
ar,lujan,Lujan,01,74823.0,-34.570278,-59.105,24.0
ar,lujan,Lujan,13,77625.0,-33.035471,-68.87782299999999,969.0
ar,mar del plata,Mar del Plata,01,645771.0,-38.002278,-57.557539,19.0
ar,mendoza,Mendoza,13,973047.0,-32.890845,-68.82717099999999,743.0
ar,mercedes,Mercedes,01,49067.0,-34.651455,-59.430676,36.0
ar,mercedes,Mercedes,06,30649.0,-29.181858,-58.078951,92.0
ar,mercedes,Mercedes,19,126559.0,-33.674359,-65.461405,523.0
ar,necochea,Necochea,01,84969.0,-38.547259,-58.736753,12.0
ar,neuquen,Neuquen,15,359037.0,-38.951606,-68.059102,302.0
ar,nueve de julio,Nueve de Julio,01,34717.0,-35.444374,-60.88313100000001,76.0
ar,obera,Obera,14,58939.0,-27.487059,-55.11994,346.0
ar,olavarria,Olavarria,01,80005.0,-36.892715,-60.32254,166.0
ar,parana,Parana,08,299257.0,-31.731967,-60.523802,52.0
ar,pergamino,Pergamino,01,86708.0,-33.889949,-60.573568,65.0
ar,posadas,Posadas,14,313438.0,-27.367077,-55.896078,78.0
ar,presidencia roque saenz pena,Presidencia Roque Saenz Pena,03,89584.0,-26.785221000000003,-60.438761,94.0
ar,puerto madryn,Puerto Madryn,04,95547.0,-42.769201,-65.038513,0.0
ar,punta alta,Punta Alta,01,53117.0,-38.875875,-62.073589,6.0
ar,rafaela,Rafaela,21,84025.0,-31.250332,-61.486696,97.0
ar,rawson,Rawson,04,26341.0,-43.300158,-65.10228000000001,8.0
ar,reconquista,Reconquista,21,95979.0,-29.15,-59.65,43.0
ar,resistencia,Resistencia,03,406967.0,-27.46056,-58.983886,53.0
ar,rio cuarto,Rio Cuarto,05,174058.0,-33.130671,-64.349918,441.0
ar,rio gallegos,Rio Gallegos,20,93234.0,-51.622613,-69.218127,0.0
ar,rio tercero,Rio Tercero,05,53396.0,-32.173008,-64.11405500000001,384.0
ar,rivadavia,Rivadavia,13,65641.0,-33.19050900000001,-68.46081,668.0
ar,rosario,Rosario,21,1218497.0,-32.946818,-60.63931700000001,24.0
ar,salta,Salta,17,548288.0,-24.785896,-65.411664,1222.5
ar,san carlos de bariloche,San Carlos de Bariloche,16,110044.0,-41.140293,-71.301369,870.0
ar,san francisco,San Francisco,05,71444.0,-31.427971000000007,-62.08265600000001,116.0
ar,san juan,San Juan,18,469958.0,-31.5375,-68.536389,638.0
ar,san lorenzo,San Lorenzo,06,47627.0,-28.133061,-58.76733100000001,64.0
ar,san luis,San Luis,19,184869.0,-33.295012,-66.335627,699.0
ar,san martin,San Martin,13,107554.0,-33.081031,-68.468138,661.0
ar,san nicolas,San Nicolas,01,130705.0,-33.335784000000004,-60.225233,29.0
ar,san pedro,San Pedro,01,67514.0,-33.679127,-59.666635,8.0
ar,san pedro,San Pedro,10,43124.0,-24.231266,-64.866141,569.0
ar,san rafael,San Rafael,13,125033.0,-34.617717,-68.330066,685.0
ar,san ramon de la nueva oran,San Ramon de la Nueva Oran,17,84504.0,-23.13398,-64.32464499999999,353.0
ar,santa fe,Santa Fe,21,456044.0,-31.629484,-60.701036,16.0
ar,santa rosa,Santa Rosa,11,89478.0,-36.616667,-64.283333,187.0
ar,santiago del estero,Santiago del Estero,22,407636.0,-27.795112,-64.261489,188.0
ar,san vicente,San Vicente,01,84333.0,-34.982645,-58.376169,24.0
ar,tandil,Tandil,01,100127.0,-37.321674,-59.133164,192.0
ar,tartagal,Tartagal,17,63600.0,-22.516365,-63.801314,512.5
ar,trelew,Trelew,04,107883.0,-43.250075,-65.313295,10.0
ar,tres arroyos,Tres Arroyos,01,47143.0,-38.373939,-60.27978100000001,116.0
ar,tucuman,Tucuman,24,828402.0,-26.824144,-65.2226,465.0
ar,ushuaia,Ushuaia,23,58045.0,-54.8,-68.3,24.5
ar,veinticinco de mayo,Veinticinco de Mayo,01,24668.0,-35.43230300000001,-60.172707,52.0
ar,venado tuerto,Venado Tuerto,21,71794.0,-33.745564,-61.968845,114.0
ar,victoria,Victoria,08,25139.0,-32.619888,-60.153907,37.0
ar,viedma,Viedma,16,76553.0,-40.81345200000001,-62.996676,7.0
ar,villa carlos paz,Villa Carlos Paz,05,61095.0,-31.424138,-64.497778,771.0
ar,villa constitucion,Villa Constitucion,21,44278.0,-33.227778,-60.329699,6.0
ar,villa maria,Villa Maria,05,92337.0,-32.407514,-63.240161,202.0
ar,zarate,Zarate,01,88222.0,-34.098142,-59.028585,24.0
at,absam,Absam,07,6594.0,47.3,11.5,853.5
at,abtenau,Abtenau,05,5829.0,47.55,13.35,761.0
at,altach,Altach,08,6040.0,47.35,9.65,412.0
at,althofen,Althofen,06,4833.0,47.15,14.233332999999998,1177.5
at,altmunster,Altmunster,04,9652.0,47.9,13.75,447.0
at,amstetten,Amstetten,03,22832.0,48.116667,14.866667,283.0
at,anif,Anif,05,4154.0,47.75,13.066667,430.0
at,ansfelden,Ansfelden,04,14936.0,48.2,14.283333,308.5
at,arnoldstein,Arnoldstein,02,6923.0,46.546111,13.71,573.0
at,asten,Asten,04,6517.0,48.216667,14.4,250.0
at,axams,Axams,07,5560.0,47.233333,11.3,955.0
at,bad aussee,Bad Aussee,06,5210.0,47.6,13.783333,736.5
at,baden,Baden,03,24893.0,48.016667,16.233333,359.5
at,bad goisern,Bad Goisern,04,7869.0,47.633333,13.616667,586.0
at,bad hall,Bad Hall,04,4935.0,48.033333,14.2,415.0
at,bad hofgastein,Bad Hofgastein,05,7002.0,47.166667,13.1,1019.0
at,bad ischl,Bad Ischl,04,14267.0,47.716667,13.616667,637.0
at,bad sankt leonhard,Bad Sankt Leonhard,02,4775.0,46.962778,14.791667000000002,997.5
at,bad voslau,Bad Voslau,03,11013.0,47.966667,16.2,392.0
at,barnbach,Barnbach,06,4850.0,46.983333,16.05,317.0
at,bergheim,Bergheim,05,5031.0,47.833333,13.033333,424.0
at,berndorf,Berndorf,03,8796.0,47.95,16.1,363.5
at,bischofshofen,Bischofshofen,05,10145.0,47.416667,13.216667,704.0
at,bludenz,Bludenz,08,13904.0,47.149722,9.816667,610.0
at,braunau,Braunau,04,16403.0,48.266667,13.033333,360.0
at,bregenz,Bregenz,08,26928.0,47.5,9.766667,747.5
at,bruck an der leitha,Bruck an der Leitha,03,7339.0,48.016667,16.766667,157.0
at,bruck an der mur,Bruck an der Mur,06,13254.0,47.416667,15.283333,573.0
at,deutschlandsberg,Deutschlandsberg,06,8049.0,46.815278,15.222222,390.0
at,deutsch-wagram,Deutsch-Wagram,03,7153.0,48.299722,16.566667000000002,156.0
at,dornbirn,Dornbirn,08,43013.0,47.416667,9.733056,410.0
at,ebbs,Ebbs,07,5088.0,47.633333,12.216667,568.5
at,ebensee,Ebensee,04,8376.0,47.8,13.766667000000002,511.0
at,ebenthal,Ebenthal,02,7809.0,46.608056,14.364167000000002,436.0
at,eberndorf,Eberndorf,02,6089.0,46.591389,14.643610999999998,473.0
at,ebreichsdorf,Ebreichsdorf,03,9509.0,47.95,16.4,205.0
at,eisenerz,Eisenerz,06,5987.0,47.533333,14.883333,1030.0
at,eisenstadt,Eisenstadt,01,11767.0,47.85,16.516667,246.0
at,engerwitzdorf,Engerwitzdorf,04,8510.0,48.35,14.45,359.5
at,enns,Enns,04,10816.0,48.2,14.466667,257.0
at,feldbach,Feldbach,06,4877.0,46.953056,15.888333,315.0
at,feldkirchen an der donau,Feldkirchen an der Donau,04,5286.0,48.35,14.05,267.0
at,feldkirchen,Feldkirchen,02,14440.0,46.716667,14.1,586.0
at,feldkirch,Feldkirch,08,29446.0,47.233056,9.6,555.5
at,ferlach,Ferlach,02,7661.0,46.526944,14.301944,496.0
at,finkenstein,Finkenstein,02,8406.0,46.565556,13.865278,580.0
at,fohnsdorf,Fohnsdorf,06,8203.0,47.2,14.683333,705.0
at,frankenburg,Frankenburg,04,5162.0,48.066667,13.483332999999998,540.0
at,freistadt,Freistadt,04,7574.0,48.5,14.5,657.0
at,friesach,Friesach,02,5369.0,46.955278,14.405833,889.5
at,frohnleiten,Frohnleiten,06,6629.0,47.266667,15.316667,484.0
at,fugen,Fugen,07,3734.0,47.35,11.85,574.0
at,furstenfeld,Furstenfeld,06,5962.0,47.05,16.083333,274.0
at,gallneukirchen,Gallneukirchen,04,6282.0,48.35,14.416667000000002,359.5
at,ganserndorf,Ganserndorf,03,8588.0,48.35,16.733333,153.0
at,garsten,Garsten,04,6657.0,48.016667,14.4,343.0
at,gleisdorf,Gleisdorf,06,5245.0,47.1,15.716667,389.5
at,gloggnitz,Gloggnitz,03,6213.0,47.666667,15.933333,607.0
at,gmunden,Gmunden,04,13287.0,47.916667,13.8,470.5
at,gmund,Gmund,03,5811.0,48.766667,14.983332999999998,491.0
at,gotzis,Gotzis,08,10342.0,47.333056,9.633056,495.0
at,gratkorn,Gratkorn,06,6806.0,47.133333,15.35,468.5
at,graz,Graz,06,222326.0,47.066667,15.45,355.0
at,grieskirchen,Grieskirchen,04,4766.0,48.233333,13.833332999999998,367.0
at,grodig,Grodig,05,6918.0,47.733333,13.033333,747.0
at,guntramsdorf,Guntramsdorf,03,9071.0,48.033333,16.3,193.0
at,haag,Haag,03,5164.0,48.15,15.5,288.0
at,hainburg,Hainburg,03,5622.0,48.15,16.933332999999998,171.5
at,hallein,Hallein,05,18980.0,47.68333300000001,13.1,451.0
at,hall,Hall,06,11197.0,47.6,14.45,811.5
at,hard,Hard,08,11766.0,47.483056,9.683056,398.0
at,heidenreichstein,Heidenreichstein,03,4472.0,48.866667,15.116667,569.0
at,hermagor,Hermagor,02,7242.0,46.627222,13.367222,781.0
at,herzogenburg,Herzogenburg,03,7866.0,48.266667,15.683333,237.0
at,himberg,Himberg,03,5534.0,48.083333,16.433332999999998,173.0
at,hochst,Hochst,08,7207.0,47.466667,9.633056,396.0
at,hohenems,Hohenems,08,14072.0,47.366667,9.683056,569.5
at,hollabrunn,Hollabrunn,03,10966.0,48.55,16.083333,241.0
at,hopfgarten,Hopfgarten,07,5314.0,47.45,12.166667,786.0
at,horbranz,Horbranz,08,6414.0,47.55,9.75,511.0
at,horn,Horn,03,6485.0,48.65,15.65,319.5
at,horsching,Horsching,04,5312.0,48.233333,14.183333,291.0
at,imst,Imst,07,9225.0,47.233333,10.733333,867.5
at,innsbruck,Innsbruck,07,112467.0,47.266667,11.4,588.0
at,jenbach,Jenbach,07,6806.0,47.4,11.783333,649.0
at,jennersdorf,Jennersdorf,01,4319.0,46.939167,16.146667,246.0
at,judenburg,Judenburg,06,9992.0,47.166667,14.666667000000002,705.0
at,kapfenberg,Kapfenberg,06,21819.0,47.43333300000001,15.3,637.0
at,kindberg,Kindberg,06,5790.0,47.5,15.45,858.5
at,kirchbichl,Kirchbichl,07,5115.0,47.516667,12.083333,598.0
at,kitzbuhel,Kitzbuhel,07,8818.0,47.45,12.383333,852.0
at,klagenfurt,Klagenfurt,02,90610.0,46.624722,14.305278,441.0
at,klosterneuburg,Klosterneuburg,03,24843.0,48.3,16.316667000000002,199.0
at,knittelfeld,Knittelfeld,06,12704.0,47.216667,14.816667,685.0
at,koflach,Koflach,06,10447.0,47.066667,15.083332999999998,533.0
at,korneuburg,Korneuburg,03,11498.0,48.35,16.333333,167.0
at,kottingbrunn,Kottingbrunn,03,7184.0,47.95,16.216667,258.0
at,krems,Krems,03,24092.0,48.416667,15.6,314.0
at,kremsmunster,Kremsmunster,04,6626.0,48.05,14.133333,377.0
at,krieglach,Krieglach,06,5236.0,47.533333,15.55,876.0
at,kuchl,Kuchl,05,6668.0,47.616667,13.15,480.0
at,kufstein,Kufstein,07,16116.0,47.583333,12.166667,929.5
at,laakirchen,Laakirchen,04,9569.0,47.966667,13.816667,445.0
at,laa,Laa,03,6084.0,48.716667,16.383333,180.0
at,landeck,Landeck,07,7351.0,47.133333,10.566667,994.5
at,langenlois,Langenlois,03,7081.0,48.466667,15.666667000000002,232.0
at,langenzersdorf,Langenzersdorf,03,7733.0,48.3,16.35,164.0
at,lauterach,Lauterach,08,9212.0,47.483056,9.733056,409.0
at,leibnitz,Leibnitz,06,7029.0,46.781667,15.541667000000002,268.0
at,lenzing,Lenzing,04,5044.0,47.966667,13.616667,480.0
at,leoben,Leoben,06,24809.0,47.383333,15.1,675.5
at,leonding,Leonding,04,22736.0,48.266667,14.25,279.0
at,lienz,Lienz,07,12270.0,46.831111,12.759722,698.5
at,liezen,Liezen,06,6903.0,47.566667,14.233332999999998,687.0
at,linz,Linz,04,181163.0,48.3,14.3,256.0
at,lochau,Lochau,08,5209.0,47.533333,9.75,747.5
at,lustenau,Lustenau,08,20218.0,47.433056,9.65,404.0
at,marchtrenk,Marchtrenk,04,11666.0,48.18333300000001,14.116667,300.0
at,maria enzersdorf,Maria Enzersdorf,03,8085.0,48.1,16.283333,262.5
at,matrei,Matrei,07,5076.0,47.0,12.533333,1389.5
at,mattersburg,Mattersburg,01,6448.0,47.733333,16.4,272.0
at,melk,Melk,03,5272.0,48.216667,15.316667,250.0
at,micheldorf,Micheldorf,04,5902.0,47.85,14.133333,564.5
at,mistelbach,Mistelbach,03,10820.0,48.57,16.576667,213.0
at,mittelberg,Mittelberg,08,4627.0,47.2,9.65,987.0
at,mittersill,Mittersill,05,5680.0,47.266667,12.483333,943.5
at,modling,Modling,03,20710.0,48.083333,16.283333,342.0
at,moosburg,Moosburg,02,4602.0,46.6575,14.174722,533.0
at,murzzuschlag,Murzzuschlag,06,9410.0,47.6,15.683333,798.0
at,nenzing,Nenzing,08,5856.0,47.183056,9.7,580.0
at,neudorfl,Neudorfl,01,4183.0,47.783333,16.283333,285.0
at,neulengbach,Neulengbach,03,7521.0,48.2,15.9,266.0
at,neunkirchen,Neunkirchen,03,11313.0,47.716667,16.083333,390.0
at,neusiedl am see,Neusiedl am See,01,5949.0,47.93333300000001,16.833333,113.0
at,nuziders,Nuziders,08,4628.0,47.166667,9.8,979.0
at,oberndorf,Oberndorf,04,5738.0,48.25,13.333332999999998,367.0
at,oberwart,Oberwart,01,6879.0,47.283333,16.2,342.0
at,pasching,Pasching,04,6143.0,48.25,14.2,328.0
at,paternion,Paternion,02,6301.0,46.714167,13.636110999999998,632.5
at,perchtoldsdorf,Perchtoldsdorf,03,14041.0,48.116667,16.266667,262.5
at,perg,Perg,04,7644.0,48.25,14.633333,369.0
at,pinkafeld,Pinkafeld,01,5257.0,47.366667,16.116667,442.0
at,pottendorf,Pottendorf,03,6105.0,47.9,16.383333,218.0
at,poysdorf,Poysdorf,03,5653.0,48.666667,16.633333,250.0
at,pressbaum,Pressbaum,03,6083.0,48.18333300000001,16.083333,390.0
at,purgstall,Purgstall,03,5247.0,48.05,15.133333,299.0
at,purkersdorf,Purkersdorf,03,8327.0,48.2,16.166667,358.0
at,radstadt,Radstadt,05,4926.0,47.383333,13.45,1204.0
at,rankweil,Rankweil,08,11455.0,47.283056,9.65,494.5
at,reichenau,Reichenau,03,2673.0,47.7,15.833332999999998,682.0
at,retz,Retz,03,4139.0,48.75,15.95,318.0
at,reutte,Reutte,07,5851.0,47.483333,10.716667,899.5
at,ried,Ried,04,11511.0,48.216667,13.5,456.0
at,rottenmann,Rottenmann,06,5561.0,47.516667,14.35,955.5
at,rum,Rum,07,8498.0,47.283333,11.45,585.5
at,rust,Rust,01,1726.0,47.8,16.666667,113.0
at,saalfelden,Saalfelden,05,16119.0,47.416667,12.85,777.0
at,salzburg,Salzburg,05,145310.0,47.8,13.033333,424.0
at,sankt andra,Sankt Andra,02,10825.0,46.766111,14.823610999999998,448.0
at,sankt florian,Sankt Florian,04,5760.0,48.166667,13.133333,424.0
at,sankt georgen,Sankt Georgen,04,4180.0,47.93333300000001,13.483332999999998,550.0
at,sankt jakob,Sankt Jakob,02,4481.0,46.547778,14.057222,483.5
at,sankt johann im pongau,Sankt Johann im Pongau,05,10887.0,47.35,13.2,763.0
at,sankt polten,Sankt Polten,03,49000.0,48.2,15.633333,277.0
at,sankt valentin,Sankt Valentin,03,9063.0,48.166667,14.516667000000002,260.0
at,sankt veit,Sankt Veit,02,13116.0,46.768056,14.360278,554.5
at,scharding,Scharding,04,4919.0,48.45,13.433333,309.0
at,scharnstein,Scharnstein,04,4631.0,47.9,13.95,551.0
at,schladming,Schladming,06,4659.0,47.383333,13.683333,961.5
at,schrems,Schrems,03,5811.0,48.783333,15.066667,533.0
at,schruns,Schruns,08,3506.0,47.066667,9.916667,1065.5
at,schwaz,Schwaz,07,12507.0,47.333333,11.7,842.5
at,schwechat,Schwechat,03,15711.0,48.133333,16.466667,161.0
at,seeboden,Seeboden,02,6221.0,46.821944,13.495,609.0
at,seekirchen,Seekirchen,05,9865.0,47.9,13.133333,534.0
at,seewalchen,Seewalchen,04,4959.0,47.95,13.583332999999998,469.0
at,sieghartskirchen,Sieghartskirchen,03,7062.0,48.25,16.0,198.5
at,sierning,Sierning,04,8722.0,48.033333,14.3,372.0
at,spittal,Spittal,02,16363.0,46.8,13.5,676.0
at,steyregg,Steyregg,04,4856.0,48.283333,14.366667,253.0
at,steyr,Steyr,04,39567.0,48.05,14.416667000000002,303.0
at,stockerau,Stockerau,03,14831.0,48.383333,16.216667,185.0
at,strasshof,Strasshof,03,7637.0,48.316667,16.666667,161.0
at,tamsweg,Tamsweg,05,6126.0,47.133333,13.8,1131.5
at,telfs,Telfs,07,14028.0,47.3,11.066667,747.0
at,ternitz,Ternitz,03,15153.0,47.716667,16.033333,454.0
at,thalgau,Thalgau,05,5501.0,47.833333,13.25,724.0
at,timelkam,Timelkam,04,5855.0,48.0,13.6,479.0
at,traiskirchen,Traiskirchen,03,16212.0,48.016667,16.283333,214.0
at,traismauer,Traismauer,03,5815.0,48.35,15.733332999999998,194.0
at,traun,Traun,04,23959.0,48.216667,14.233332999999998,275.0
at,trofaiach,Trofaiach,06,8313.0,47.416667,15.0,792.0
at,tulln,Tulln,03,14201.0,48.333333,16.05,174.0
at,velden am worthersee,Velden am Worthersee,02,8817.0,46.616111,14.045832999999998,524.5
at,vienna,Vienna,09,1569315.0,48.2,16.366667,203.0
at,villach,Villach,02,58882.0,46.610278,13.855833,495.0
at,vocklabruck,Vocklabruck,04,11887.0,48.016667,13.65,497.0
at,vocklamarkt,Vocklamarkt,04,4869.0,48.0,13.483332999999998,540.0
at,voitsberg,Voitsberg,06,9980.0,47.033333,15.15,521.0
at,volkermarkt,Volkermarkt,02,11543.0,46.662222,14.634444,437.0
at,vols,Vols,07,6573.0,47.25,11.333333,829.5
at,vomp,Vomp,07,4628.0,47.333333,11.683333,842.5
at,vorchdorf,Vorchdorf,04,7456.0,48.0,13.916667000000002,420.0
at,waidhofen,Waidhofen,03,11774.0,47.966667,14.766667000000002,467.0
at,wattens,Wattens,07,7517.0,47.283333,11.6,1107.0
at,weiz,Weiz,06,9128.0,47.216667,15.616667,568.5
at,wels,Wels,04,57947.0,48.166667,14.033333,322.0
at,wernberg,Wernberg,02,5070.0,46.616667,13.933333,553.5
at,wiener neudorf,Wiener Neudorf,03,8530.0,48.066667,16.316667000000002,192.0
at,wiener neustadt,Wiener Neustadt,03,38481.0,47.8,16.25,262.5
at,wilhelmsburg,Wilhelmsburg,03,6718.0,48.1,15.6,353.0
at,wolfsberg,Wolfsberg,02,25610.0,46.840556,14.844167,589.5
at,wolfurt,Wolfurt,08,8110.0,47.466667,9.75,592.5
at,wolkersdorf,Wolkersdorf,03,6416.0,48.383333,16.516667,207.0
at,worgl,Worgl,07,11265.0,47.483333,12.066667,576.0
at,ybbs,Ybbs,03,5676.0,48.166667,15.083332999999998,280.0
at,zell am see,Zell am See,05,10046.0,47.316667,12.783333,1101.5
at,zeltweg,Zeltweg,06,7726.0,47.18333300000001,14.75,659.0
at,zirl,Zirl,07,6567.0,47.283333,11.233333,761.5
at,zistersdorf,Zistersdorf,03,5661.0,48.533333,16.75,202.0
at,zwettl,Zwettl,03,11718.0,48.616667,15.166667000000002,563.0
au,adelaide,Adelaide,05,1074168.0,-34.928661,138.598633,50.0
au,albany,Albany,08,23913.0,-35.003101,117.865952,18.0
au,albury,Albury,02,104261.0,-36.07494000000001,146.923935,175.0
au,alice springs,Alice Springs,03,26188.0,-23.697479,133.883621,598.0
au,alyangula,Alyangula,03,1289.0,-13.85413,136.421295,19.0
au,ararat,Ararat,07,6111.0,-37.285419,142.927277,321.0
au,armidale,Armidale,02,22673.0,-30.50828,151.671234,997.0
au,atherton,Atherton,04,6959.0,-17.268641,145.47522,781.0
au,australind,Australind,08,6621.0,-33.279202000000005,115.715042,12.0
au,ayr,Ayr,04,9079.0,-19.573931,147.406662,11.0
au,bairnsdale,Bairnsdale,07,11006.0,-37.822891,147.610413,22.0
au,ballarat,Ballarat,07,85110.0,-37.56266,143.862579,446.5
au,ballina,Ballina,02,14248.0,-28.864140000000006,153.56541399999998,4.0
au,batemans bay,Batemans Bay,02,10557.0,-35.706581,150.175415,34.0
au,benalla,Benalla,07,9020.0,-36.55112800000001,145.984253,174.0
au,bendigo,Bendigo,07,81658.0,-36.758179,144.28024299999996,244.0
au,biloela,Biloela,04,6309.0,-24.416667,150.5,181.0
au,blackwater,Blackwater,04,7250.0,-23.583509,148.87912,178.0
au,bongaree,Bongaree,04,13649.0,-27.08367,153.159424,0.0
au,bowen,Bowen,04,10983.0,-20.01367,148.247543,5.0
au,bowral,Bowral,02,9605.0,-34.477501000000004,150.42039499999996,696.0
au,brisbane,Brisbane,04,1843459.0,-27.47101,153.024292,17.0
au,broken hill,Broken Hill,02,17395.0,-31.961729,141.459976,295.0
au,broome,Broome,08,13218.0,-17.955379,122.23922,16.0
au,buderim,Buderim,04,15228.0,-26.684429,153.057053,51.0
au,bunbury,Bunbury,08,26370.0,-33.32711,115.641373,0.0
au,bundaberg,Bundaberg,04,52478.0,-24.866211,152.3479,9.0
au,burnie,Burnie,06,19976.0,-41.05584,145.903748,98.0
au,burpengary,Burpengary,04,8280.0,-27.161131,152.959442,15.0
au,busselton,Busselton,08,12374.0,-33.652489,115.345497,2.0
au,byron bay,Byron Bay,02,6764.0,-28.64201,153.61193799999995,7.0
au,caboolture,Caboolture,04,21478.0,-27.08465,152.951096,17.0
au,cairns,Cairns,04,154318.0,-16.92304,145.766251,6.0
au,caloundra,Caloundra,04,38714.0,-26.797091,153.13771100000002,0.0
au,canberra,Canberra,01,324025.0,-35.27603,149.13435,588.0
au,carnarvon,Carnarvon,08,7392.0,-24.88073,113.659401,0.0
au,casino,Casino,02,9539.0,-28.858191,153.04748500000005,22.0
au,castlemaine,Castlemaine,07,6604.0,-37.067089,144.21684299999995,316.0
au,cessnock,Cessnock,02,16394.0,-32.832111,151.356232,73.0
au,charters towers,Charters Towers,04,9574.0,-20.07671,146.26353500000005,295.0
au,clifton springs,Clifton Springs,07,7413.0,-38.1567,144.555099,0.0
au,coffs harbour,Coffs Harbour,02,62978.0,-30.296261,153.11351000000005,9.0
au,colac,Colac,07,9089.0,-38.339001,143.584885,141.0
au,collie,Collie,08,6337.0,-33.362061,116.156174,211.0
au,coolum beach,Coolum Beach,04,8555.0,-26.533331,153.09123200000005,0.0
au,cooma,Cooma,02,6520.0,-36.234692,149.125977,825.0
au,cootamundra,Cootamundra,02,4934.0,-34.640949,148.028381,336.0
au,corowa,Corowa,02,5179.0,-35.999619,146.385803,141.0
au,cowra,Cowra,02,6799.0,-33.835541,148.696625,299.0
au,craigieburn,Craigieburn,07,19728.0,-37.6,144.95,197.0
au,cranbourne,Cranbourne,07,39420.0,-38.113419,145.283264,49.5
au,crib point,Crib Point,07,6908.0,-38.35,145.2,17.0
au,dalby,Dalby,04,9848.0,-27.181690000000003,151.262054,342.0
au,darwin,Darwin,03,93081.0,-12.45722,130.836639,13.0
au,deception bay,Deception Bay,04,16090.0,-27.193541,153.026306,10.0
au,deniliquin,Deniliquin,02,8024.0,-35.52740900000001,144.959579,95.0
au,devonport,Devonport,06,19318.0,-41.176949,146.351517,25.0
au,dubbo,Dubbo,02,29362.0,-32.24295,148.604843,264.0
au,emerald,Emerald,04,9399.0,-23.522961,148.157837,180.0
au,esperance,Esperance,08,7889.0,-33.86013,121.882591,10.0
au,flinders,Flinders,05,15000.0,-32.799240000000005,134.211594,13.0
au,forbes,Forbes,02,4838.0,-33.384361,148.007599,239.0
au,galiwinku,Galiwinku,03,1347.0,-12.02811,135.564865,0.0
au,gatton,Gatton,04,6513.0,-27.558729,152.276184,107.0
au,gawler,Gawler,05,16362.0,-34.602509000000005,138.749023,53.0
au,geelong,Geelong,07,150438.0,-38.153461,144.358093,22.0
au,geraldton,Geraldton,08,27259.0,-28.778971,114.614594,0.0
au,gladstone,Gladstone,04,30493.0,-23.84761,151.256348,7.0
au,gold coast,Gold Coast,04,501175.0,-28.000290000000003,153.430878,0.0
au,goulburn,Goulburn,02,20941.0,-34.751549,149.720856,642.0
au,grafton,Grafton,02,16399.0,-29.690121,152.93336499999995,6.0
au,griffith,Griffith,02,15456.0,-34.288528,146.050934,139.0
au,gunnedah,Gunnedah,02,7148.0,-30.98065,150.258377,267.0
au,gympie,Gympie,04,11029.0,-26.189159,152.658188,65.0
au,hamilton,Hamilton,07,8869.0,-37.74334,142.02891499999996,202.0
au,hastings,Hastings,07,6583.0,-38.3,145.183333,12.5
au,healesville,Healesville,07,7098.0,-37.65395,145.517181,124.5
au,hervey bay,Hervey Bay,04,47561.0,-25.285,152.873,0.0
au,hobart,Hobart,06,204863.0,-42.883209,147.331665,110.5
au,horsham,Horsham,07,12830.0,-36.711311,142.199814,129.0
au,howard springs,Howard Springs,03,3359.0,-12.49576,131.04446399999998,24.5
au,ingham,Ingham,04,6127.0,-18.645519,146.162476,16.0
au,innisfail,Innisfail,04,10144.0,-17.522091,146.031021,8.0
au,inverell,Inverell,02,8561.0,-29.774031,151.111664,602.0
au,jabiru,Jabiru,03,1892.0,-12.67558,132.83140600000002,29.0
au,karratha,Karratha,08,11694.0,-20.73649,116.84638,9.0
au,katherine,Katherine,03,10142.0,-14.46517,132.263474,107.0
au,kawana waters,Kawana Waters,04,19881.0,-26.705999,153.131577,0.0
au,kempsey,Kempsey,02,9522.0,-31.078979,152.83093300000004,10.0
au,kiama,Kiama,02,10380.0,-34.668282,150.85218799999996,14.5
au,kingaroy,Kingaroy,04,8573.0,-26.53994,151.837296,496.0
au,kununurra,Kununurra,08,5679.0,-15.77813,128.74414099999998,44.0
au,kurri kurri,Kurri Kurri,02,10991.0,-32.81932800000001,151.47908,29.0
au,kwinana,Kwinana,08,20087.0,-32.230129,115.781281,5.0
au,kyabram,Kyabram,07,6396.0,-36.313351,145.050354,107.0
au,lakes entrance,Lakes Entrance,07,5849.0,-37.878941,147.995132,0.0
au,lara,Lara,07,8179.0,-38.02388,144.406174,16.0
au,launceston,Launceston,06,72462.0,-41.43875900000001,147.134674,13.0
au,leeton,Leeton,02,7299.0,-34.551048,146.404831,138.0
au,lemon tree passage,Lemon Tree Passage,02,5865.0,-32.731579,152.03718600000005,0.0
au,leopold,Leopold,07,6120.0,-38.19001,144.468246,42.0
au,lismore,Lismore,02,31433.0,-28.81328,153.275803,11.0
au,lithgow,Lithgow,02,11129.0,-33.482471000000004,150.13630700000004,944.0
au,mackay,Mackay,04,75924.0,-21.15345,149.165543,11.0
au,mandurah,Mandurah,08,73369.0,-32.526901,115.721703,3.0
au,maningrida,Maningrida,03,1391.0,-12.05111,134.22258,26.5
au,mareeba,Mareeba,04,8403.0,-16.995001000000002,145.423233,403.0
au,maryborough,Maryborough,04,20680.0,-25.54073,152.704926,17.0
au,maryborough,Maryborough,07,7046.0,-37.04562,143.739227,262.0
au,medowie,Medowie,02,5841.0,-32.741501,151.867599,26.0
au,melbourne,Melbourne,07,3730212.0,-37.813938,144.963425,29.0
au,melton,Melton,07,32369.0,-37.683392,144.58543400000005,139.0
au,mildura,Mildura,07,47867.0,-34.185509,142.162506,46.0
au,milingimbi,Milingimbi,03,986.0,-12.10188,134.919006,0.0
au,mittagong,Mittagong,02,6717.0,-34.45002,150.445724,642.0
au,moranbah,Moranbah,04,7955.0,-21.99828,148.034836,241.0
au,morayfield,Morayfield,04,10261.0,-27.108761,152.949066,17.0
au,moree,Moree,02,8205.0,-29.46278,149.841568,211.0
au,morwell,Morwell,07,11585.0,-38.23476,146.39498899999995,75.0
au,moss vale,Moss Vale,02,6739.0,-34.553740999999995,150.37115500000004,673.0
au,mount barker,Mount Barker,05,8357.0,-35.066666999999995,138.866667,366.0
au,mount gambier,Mount Gambier,05,23210.0,-37.831799,140.77919,47.0
au,mount isa,Mount Isa,04,22564.0,-20.725229,139.497269,369.0
au,mudgee,Mudgee,02,9042.0,-32.433333000000005,149.583333,575.0
au,murray bridge,Murray Bridge,05,11356.0,-35.119862,139.273453,23.0
au,murwillumbah,Murwillumbah,02,6868.0,-28.32732,153.39338700000005,4.0
au,muswellbrook,Muswellbrook,02,11630.0,-32.261181,150.89009099999996,169.0
au,nambour,Nambour,04,14919.0,-26.626129,152.959412,34.0
au,nambucca heads,Nambucca Heads,02,6899.0,-30.643181,153.008835,0.0
au,narrabri,Narrabri,02,7082.0,-30.32612,149.783707,212.0
au,nelson bay,Nelson Bay,02,7725.0,-32.720428000000005,152.143982,29.0
au,nerang,Nerang,04,17684.0,-27.98941,153.33633400000005,25.0
au,newcastle,Newcastle,02,497961.0,-32.927792,151.78448500000005,3.5
au,new norfolk,New Norfolk,06,5526.0,-42.78075,147.05938700000004,63.5
au,nguiu,Nguiu,03,1250.0,-11.75911,130.63815300000002,0.0
au,ngukurr,Ngukurr,03,947.0,-14.73081,134.731018,12.0
au,nhulunbuy,Nhulunbuy,03,3202.0,-12.18652,136.78201299999998,12.0
au,northam,Northam,08,5858.0,-31.649321,116.674232,161.0
au,orange,Orange,02,30402.0,-33.283089000000004,149.100006,875.0
au,pakenham,Pakenham,07,10602.0,-38.070179,145.474106,54.0
au,palmerston,Palmerston,03,31075.0,-12.45722,130.836639,13.0
au,parkes,Parkes,02,11137.0,-33.137199,148.175903,322.5
au,perth,Perth,08,1446715.0,-31.952240000000003,115.861397,29.0
au,port augusta,Port Augusta,05,12133.0,-32.495971999999995,137.77281200000002,10.0
au,port hedland,Port Hedland,08,14289.0,-20.312149,118.610588,5.0
au,port keats,Port Keats,03,1351.0,-14.24029,129.52092,9.5
au,portland,Portland,07,8842.0,-38.352612,141.605743,15.0
au,port lincoln,Port Lincoln,05,11247.0,-34.72625,135.87442,20.5
au,port macquarie,Port Macquarie,02,48553.0,-31.430840000000003,152.908936,7.0
au,port pirie,Port Pirie,05,12328.0,-33.191761,138.017456,8.0
au,queanbeyan,Queanbeyan,02,32249.0,-35.354931,149.23199499999996,592.0
au,raymond terrace,Raymond Terrace,02,13606.0,-32.75,151.75,18.0
au,rockhampton,Rockhampton,04,65851.0,-23.38032,150.505951,7.0
au,roebourne,Roebourne,08,19264.0,-20.772289,117.146477,12.0
au,roma,Roma,04,5497.0,-26.56741,148.787506,311.0
au,sale,Sale,07,12917.0,-38.11095,147.068024,11.0
au,sawtell,Sawtell,02,14608.0,-30.364590000000003,153.10141000000004,5.0
au,singleton,Singleton,02,13813.0,-32.567421,151.166031,56.0
au,somerville,Somerville,07,7015.0,-38.216667,145.166667,42.0
au,stawell,Stawell,07,6991.0,-37.05632,142.780884,236.5
au,sunbury,Sunbury,07,29926.0,-37.577419,144.726074,238.0
au,swan hill,Swan Hill,07,9276.0,-35.3386,143.559525,70.0
au,sydney,Sydney,02,4394585.0,-33.861481,151.205475,8.0
au,tamworth,Tamworth,02,38552.0,-31.090481,150.929047,389.0
au,taree,Taree,02,44183.0,-31.91099,152.453873,19.5
au,toowoomba,Toowoomba,04,92802.0,-27.56056,151.953857,629.0
au,torquay,Torquay,04,6670.0,-25.283333,152.866667,0.0
au,townsville,Townsville,04,138959.0,-19.26639,146.805695,8.0
au,traralgon,Traralgon,07,18226.0,-38.195278,146.541504,45.5
au,tumut,Tumut,02,6526.0,-35.300159,148.225052,288.0
au,ulladulla,Ulladulla,02,9250.0,-35.35905800000001,150.472473,7.5
au,ulverstone,Ulverstone,06,9605.0,-41.160259,146.18241899999995,0.0
au,victor harbor,Victor Harbor,05,7760.0,-35.550419,138.62153600000002,11.0
au,victoria point,Victoria Point,04,11930.0,-27.58329,153.311722,0.0
au,wagga wagga,Wagga Wagga,02,55382.0,-35.125771,147.353745,218.0
au,wangaratta,Wangaratta,07,14023.0,-36.358459,146.320557,148.0
au,warragul,Warragul,07,9128.0,-38.159119,145.931183,130.0
au,warrnambool,Warrnambool,07,29928.0,-38.38176,142.487991,2.0
au,warwick,Warwick,04,12347.0,-28.219009000000003,152.034378,467.0
au,wellington,Wellington,02,5428.0,-32.555882000000004,148.945084,303.0
au,whyalla,Whyalla,05,19646.0,-33.032681,137.56483500000002,28.0
au,wodonga,Wodonga,07,31518.0,-36.121792,146.888092,156.0
au,wollongong,Wollongong,02,260918.0,-34.424,150.893448,6.0
au,wonthaggi,Wonthaggi,07,5985.0,-38.605862,145.593552,30.0
au,yeppoon,Yeppoon,04,10769.0,-23.126829,150.74406399999995,45.0
au,young,Young,02,7501.0,-34.313499,148.301071,481.5
au,yulara,Yulara,03,3903.0,-25.245291,130.980545,504.0
aw,oranjestad,Oranjestad,00,29998.0,12.516666699999998,-70.0333333,18.0
az,agdam,Agdam,03,39451.0,39.99096,46.927356,364.0
az,agdas,Agdas,04,23528.0,40.65,47.476111,41.0
az,agstafa,Agstafa,05,12542.0,41.118889,45.453889,354.0
az,agsu,Agsu,06,17209.0,40.569167,48.396476,159.0
az,alunitdag,Alunitdag,16,857.0,40.521667,46.080556,1713.5
az,aran,Aran,67,6724.0,40.625278,46.975556,58.0
az,artyom,Artyom,09,13435.0,40.472255,50.333041,-27.0
az,astara,Astara,08,15190.0,38.455977,48.87498,-21.0
az,badamdar,Badamdar,09,11398.0,40.339444,49.803889,96.5
az,baku,Baku,09,1116513.0,40.39527800000001,49.882222,11.0
az,basqal,Basqal,25,1234.0,40.7552,48.391044,1201.0
az,buzovna,Buzovna,09,24795.0,40.517888,50.113901,0.0
az,ceyranbatan,Ceyranbatan,01,5684.0,40.540833,49.659722,25.0
az,corat,Corat,54,8624.0,40.5725,49.706389,0.0
az,culfa,Culfa,35,10820.0,38.9558,45.6308,712.5
az,gilazi,Gilazi,53,3277.0,40.903896,49.335522,-23.0
az,gilazi,Gilazi,63,3277.0,40.870977,49.342333,3.0
az,goranboy,Goranboy,21,7334.0,40.610278,46.789722,173.0
az,goycay,Göyçay,22,35348.0,40.653056,47.740556,101.0
az,gurgan,Gürgan,09,712.0,40.397462,50.336733,-27.0
az,guzdak,Guzdak,01,2462.0,40.374444,49.681944,109.0
az,hadrut,Hadrut,65,2523.0,39.520018,47.0318,888.5
az,haftoni,Haftoni,29,2003.0,38.76325300000001,48.762231,-10.0
az,hasanabad,Hasanabad,36,4308.0,39.336672,49.214143,-26.0
az,horadiz,Horadiz,18,2714.0,39.448771,47.335313,143.0
az,hovsan,Hövsan,09,36293.0,40.374444,50.085278,-27.0
az,imisli,Imisli,24,31381.0,39.871307,48.064094,-1.0
az,istisu,Istisu,26,929.0,39.947532,45.962121,2644.0
az,kesla,Kesla,09,17913.0,40.397778,49.898611,11.0
az,kijaba,Kijäba,08,4567.0,38.532778,48.816667,-13.0
az,kirovskiy,Kirovskiy,09,34488.0,40.43333300000001,49.85,20.0
az,korgoz,Korgöz,09,2036.0,40.303056,49.62,46.0
az,lerik,Lerik,31,7094.0,38.772633,48.412788,1214.0
az,lokbatan,Lökbatan,09,30694.0,40.323718,49.728038,-20.0
az,masalli,Masalli,32,9603.0,39.027781,48.670276,-6.0
az,mastaga,Mastaga,09,40092.0,40.532778,50.003889,16.0
az,mincivan,Mincivan,69,6353.0,39.029348,46.718471,331.5
az,mugan,Mugan,23,4410.0,40.095182,48.821136,-12.0
az,naftalan,Naftalan,34,7045.0,40.506667,46.825,227.0
az,nardaran,Nardaran,09,7700.0,40.556111,50.005556,15.0
az,neftcala,Neftçala,36,18661.0,39.37417,49.247224,-26.0
az,ordubad,Ordubad,35,9781.0,38.905954,46.023411,763.5
az,pirsagi,Pirsagi,09,5102.0,40.564032,49.8913,-6.0
az,pushkino,Pushkino,13,18182.0,39.458333,48.545,0.0
az,puta,Puta,09,1018.0,40.296667,49.66027800000001,-0.5
az,qabaqcol,Qabaqçöl,10,1293.0,41.72,46.264722,235.0
az,qala,Qala,09,2709.0,40.44182,50.168121,7.0
az,qaracala,Qaraçala,49,4211.0,39.813178,48.952303,-21.0
az,qaracuxur,Qaraçuxur,09,72989.0,40.396667,49.973611,61.0
az,qarayeri,Qarayeri,52,5565.0,40.78862,46.306589,278.0
az,qax,Qax,39,11993.0,41.4225,46.924167,850.0
az,qazanbulaq,Qazanbulaq,21,980.0,40.618611,46.64527800000001,303.0
az,qazax,Qazax,40,18904.0,41.093333,45.366111,368.0
az,qobu,Qobu,01,7377.0,40.404722,49.713056,117.0
az,qobustan,Qobustan,09,13398.0,40.08238,49.412048,13.5
az,qovlar,Qovlar,58,12819.0,40.942137,45.732171,444.0
az,quba,Quba,42,22405.0,41.362587,48.515186,600.0
az,qusar,Qusar,44,16022.0,41.427284,48.42893,659.5
az,quscu,Quscu,16,408.0,40.555556,46.091944,1280.0
az,ramana,Ramana,09,8855.0,40.442222,49.980556,28.0
az,sabirabad,Sabirabad,46,28076.0,40.009458,48.475154,-12.0
az,sabuncu,Sabunçu,09,20996.0,40.4425,49.948056,23.0
az,sahbuz,Sahbuz,35,2674.0,39.407222,45.573889,1225.0
az,salyan,Salyan,49,36555.0,39.593615,48.980552,-20.0
az,samur,Samur,44,1760.0,41.632544,48.430248,266.0
az,saray,Saray,01,10173.0,40.532222,49.716389,53.0
az,sollar,Sollar,60,205.0,41.639727,48.664408,63.0
az,sonqar,Sonqar,09,730.0,40.322099,49.601085,46.0
az,suraabad,Suraabad,63,1945.0,40.819244,49.468745,-20.0
az,susa,Susa,56,18663.0,39.758934,46.749187,1141.5
az,tovuz,Tovuz,58,12626.0,40.992222,45.628889,418.0
az,turkan,Türkan,09,9699.0,40.363889,50.215,-24.0
az,turyancay,Türyançay,04,307.0,40.7088,47.54326,194.0
az,ucar,Ucar,59,15741.0,40.518333,47.654167,16.0
az,vurgun,Vurgun,05,2635.0,41.094229,45.471616,347.0
az,xacmaz,Xaçmaz,60,37175.0,41.463489,48.80605,27.0
az,xanlar,Xanlar,62,17816.0,40.586944,46.31583300000001,635.0
az,xocali,Xocali,61,5810.0,39.9,46.866667,1075.5
az,xocali,Xocali,64,5810.0,39.912973,46.790284,629.0
az,xocasan,Xocasan,09,5089.0,40.413484,49.772088,80.0
az,xudat,Xudat,60,13625.0,41.630965,48.681,29.0
az,yevlax,Yevlax,68,53715.0,40.612732,47.142329,16.0
az,zabrat,Zabrat,09,21396.0,40.476104,49.941582,26.0
az,zaqatala,Zaqatala,70,18277.0,41.633611,46.643333,571.5
az,zig,Zig,09,6001.0,40.343889,49.969167,-7.0
ba,banja luka,Banja Luka,02,221100.0,44.7758333,17.1855556,170.5
ba,banovici,Banovici,01,7211.0,44.40416670000001,18.4475,543.5
ba,barice,Barice,01,3697.0,44.54055560000001,18.4811111,216.0
ba,batkovici,Batkovici,02,4923.0,44.8536111,19.1963889,79.0
ba,bihac,Bihac,01,75641.0,44.8169444,15.8708333,224.0
ba,bijela,Bijela,01,3484.0,43.60861110000001,17.9519444,723.0
ba,bijeljina,Bijeljina,02,37691.0,44.7569444,19.2161111,89.0
ba,bila,Bila,01,4397.0,43.7825,16.925277800000003,765.5
ba,bileca,Bileca,02,13256.0,42.8719444,18.4297222,481.0
ba,blagaj,Blagaj,01,4715.0,43.2575,17.888611100000006,314.5
ba,blatnica,Blatnica,02,5675.0,44.35305560000001,17.589444399999998,1386.5
ba,bosanska dubica,Bosanska Dubica,02,9959.0,45.1766667,16.8094444,99.5
ba,bosanska gradiska,Bosanska Gradiska,02,13345.0,45.1411111,17.25,88.0
ba,bosanska kostajnica,Bosanska Kostajnica,02,4739.0,45.2197222,16.5358333,174.0
ba,bosanska krupa,Bosanska Krupa,01,15193.0,44.8825,16.1513889,214.0
ba,bosanski brod,Bosanski Brod,02,9249.0,45.1375,17.9897222,83.0
ba,bosanski novi,Bosanski Novi,02,8920.0,45.0458333,16.3802778,159.0
ba,bosanski samac,Bosanski Samac,02,3599.0,45.0591667,18.4669444,83.0
ba,bosansko grahovo,Bosansko Grahovo,01,5642.0,44.1794444,16.3638889,855.0
ba,bratunac,Bratunac,02,4717.0,44.1875,19.3394444,182.0
ba,brcko,Brcko,BD,38478.0,44.8727778,18.8083333,95.0
ba,breza,Breza,01,3732.0,44.0161111,18.2588889,572.0
ba,bronzani majdan,Bronzani Majdan,02,3945.0,44.7869444,16.9311111,265.0
ba,bugojno,Bugojno,01,41378.0,44.0572222,17.450833300000006,580.0
ba,busovaca,Busovaca,01,4775.0,44.0975,17.8788889,462.0
ba,buzim,Buzim,01,7229.0,45.0547222,16.0319444,287.5
ba,cajnice,Cajnice,02,3908.0,43.5575,19.0711111,936.5
ba,capljina,Capljina,01,7923.0,43.1138889,17.7036111,19.0
ba,careva cuprija,Careva Cuprija,01,3954.0,44.2658333,18.4291667,534.0
ba,cazin,Cazin,01,21741.0,44.9669444,15.943055599999996,407.0
ba,cecava,Cecava,02,3847.0,44.6866667,17.7705556,256.0
ba,celinac,Celinac,02,6670.0,44.7227778,17.327777800000003,239.5
ba,cim,Cim,01,3966.0,43.3527778,17.777222199999994,319.5
ba,citluk,Citluk,01,5718.0,43.2286111,17.700833300000006,214.0
ba,coralici,Coralici,01,5223.0,44.98305560000001,15.9041667,304.5
ba,crnici,Crnici,01,5789.0,43.1288889,17.8666667,265.5
ba,derventa,Derventa,02,9772.0,44.9772222,17.910277800000006,118.5
ba,divicani,Divicani,01,7250.0,44.3666667,17.326111100000002,467.5
ba,doboj,Doboj,02,27234.0,44.7347222,18.0877778,178.0
ba,dobrinje,Dobrinje,01,3987.0,44.0497222,18.1194444,532.0
ba,dobrljin,Dobrljin,02,3581.0,45.1469444,16.5033333,287.0
ba,donja dubica,Donja Dubica,01,3489.0,45.075,18.4113889,86.0
ba,donja mahala,Donja Mahala,01,5565.0,45.0469444,18.6663889,81.0
ba,donja medjidja,Donja Medjidja,01,3782.0,44.8025,18.4033333,268.5
ba,donja orahovica,Donja Orahovica,01,5612.0,44.6530556,18.370277800000004,176.0
ba,donje dubrave,Donje Dubrave,01,3811.0,44.48111110000001,18.6961111,237.0
ba,donje vukovije,Donje Vukovije,01,3535.0,44.4636111,18.7538889,306.0
ba,donji vakuf,Donji Vakuf,01,7955.0,44.1436111,17.4,580.5
ba,dreznica,Dreznica,01,3908.0,43.5288889,17.2819444,844.0
ba,drinovci,Drinovci,01,3791.0,43.355,17.3538889,417.0
ba,dubravica,Dubravica,01,3868.0,44.4419444,18.1180556,317.5
ba,foca,Foca,02,14614.0,43.505,18.7786111,586.0
ba,fojnica,Fojnica,01,8244.0,43.9625,17.8983333,794.5
ba,gacko,Gacko,02,3417.0,43.1672222,18.535277800000006,1099.0
ba,glamoc,Glamoc,01,4015.0,44.0458333,16.8486111,928.0
ba,gnojnica,Gnojnica,01,3985.0,44.6205556,18.4466667,205.0
ba,gorazde,Gorazde,01,17649.0,43.6669444,18.9763889,558.5
ba,gornja koprivna,Gornja Koprivna,01,4600.0,45.0119444,15.9572222,406.0
ba,gornja tuzla,Gornja Tuzla,01,4864.0,44.5561111,18.7613889,407.5
ba,gornje dubrave,Gornje Dubrave,01,4821.0,44.4713889,18.7297222,298.0
ba,gornje zivinice,Gornje Zivinice,01,4661.0,44.42861110000001,18.6169444,267.0
ba,gornji vakuf,Gornji Vakuf,01,7014.0,43.93805560000001,17.588333300000002,778.0
ba,gostovici,Gostovici,01,5802.0,44.415,18.1583333,366.0
ba,gracanica,Gracanica,01,15758.0,44.7033333,18.3097222,168.5
ba,gradacac,Gradacac,01,15659.0,44.8808333,18.4269444,132.0
ba,gromiljak,Gromiljak,01,6457.0,43.96666670000001,18.0530556,554.5
ba,grude,Grude,01,4627.0,43.3641667,17.4205556,288.5
ba,hadzici,Hadzici,01,7173.0,43.8222222,18.2066667,684.0
ba,hotonj,Hotonj,01,4013.0,43.8947222,18.3727778,618.0
ba,ilici,Ilici,01,3688.0,43.3472222,17.7680556,319.5
ba,ilijas,Ilijas,01,5854.0,43.9508333,18.2708333,526.5
ba,izacic,Izacic,01,4089.0,44.875,15.781944400000002,343.0
ba,jablanica,Jablanica,01,6209.0,43.6602778,17.7616667,262.0
ba,jajce,Jajce,01,9762.0,44.3422222,17.265555600000006,535.0
ba,janja,Janja,02,5543.0,44.6652778,19.2477778,106.0
ba,jelah,Jelah,01,5291.0,44.65416670000001,17.9580556,190.0
ba,jezerski,Jezerski,01,4361.0,44.9808333,16.084166699999994,318.0
ba,kacuni,Kacuni,01,5042.0,44.065,17.9386111,552.5
ba,kakanj,Kakanj,01,12405.0,44.1272222,18.1180556,534.0
ba,karadaglije,Karadaglije,01,3700.0,44.5716667,18.0183333,404.0
ba,kiseljak,Kiseljak,01,3447.0,44.4888889,18.5688889,209.0
ba,kladanj,Kladanj,01,6783.0,44.2263889,18.6913889,687.5
ba,kljuc,Kljuc,01,7244.0,44.535,16.772222199999998,474.0
ba,knezica,Knezica,02,4792.0,45.1027778,16.6775,166.5
ba,kobilja glava,Kobilja Glava,01,3666.0,43.8819444,18.3891667,666.5
ba,kocerin,Kocerin,01,3516.0,43.3897222,17.485,403.5
ba,konjic,Konjic,01,15950.0,43.6519444,17.9613889,451.0
ba,koran,Koran,02,3394.0,43.8102778,18.5688889,892.5
ba,laktasi,Laktasi,02,6464.0,44.9080556,17.3008333,123.0
ba,lamovita,Lamovita,02,4582.0,44.9255556,16.9072222,203.0
ba,lijesnica,Lijesnica,01,3559.0,44.4941667,18.0741667,245.5
ba,listica,Listica,01,9370.0,43.3833333,17.5927778,449.0
ba,livno,Livno,01,11748.0,43.8269444,17.007777800000003,826.5
ba,ljubinje,Ljubinje,02,4235.0,42.9508333,18.0886111,487.5
ba,ljubuski,Ljubuski,01,9987.0,43.19694439999999,17.545,104.0
ba,lokvine,Lokvine,01,3928.0,44.2047222,17.8563889,591.5
ba,lopare,Lopare,02,3614.0,44.6377778,18.8427778,284.0
ba,lukavac,Lukavac,01,12607.0,44.5419444,18.5258333,224.0
ba,lukavica,Lukavica,01,4084.0,44.7627778,18.1688889,314.5
ba,maglajani,Maglajani,02,4221.0,44.9486111,17.3494444,112.0
ba,maglaj,Maglaj,01,7398.0,44.5491667,18.0966667,244.5
ba,mala kladusa,Mala Kladusa,01,6033.0,45.1341667,15.8586111,199.0
ba,malesici,Malesici,01,3764.0,44.7380556,18.2738889,330.5
ba,maricka,Maricka,02,3707.0,44.8588889,16.852222199999996,178.0
ba,maslovare,Maslovare,02,4899.0,44.5655556,17.5336111,492.0
ba,milici,Milici,02,8210.0,44.1316667,19.0316667,688.0
ba,mionica,Mionica,01,8701.0,44.8672222,18.4630556,167.0
ba,modrica,Modrica,02,5135.0,44.95444439999999,18.3036111,105.0
ba,mostar,Mostar,01,104517.0,43.3433333,17.8080556,92.5
ba,mostre,Mostre,01,4009.0,44.025,18.1413889,418.0
ba,mramor,Mramor,01,3918.0,44.59166670000001,18.5644444,323.0
ba,mrkonjic grad,Mrkonjic Grad,02,14737.0,44.4158333,17.0861111,663.5
ba,nevesinje,Nevesinje,02,7312.0,43.2586111,18.1133333,919.0
ba,novi seher,Novi Seher,01,4416.0,44.5102778,18.0258333,285.0
ba,novi travnik,Novi Travnik,01,10006.0,44.17111110000001,17.6575,681.0
ba,obudovac,Obudovac,02,2171.0,44.965,18.6122222,85.0
ba,odzak,Odzak,01,11621.0,45.0111111,18.3266667,99.0
ba,olovo,Olovo,01,3305.0,44.13,18.5827778,656.0
ba,omarska,Omarska,02,6466.0,44.89,16.8991667,163.0
ba,orasac,Orasac,01,3856.0,44.6288889,16.0711111,460.0
ba,orasje,Orasje,01,3613.0,45.0355556,18.693333300000006,83.0
ba,orguz,Orguz,01,4371.0,43.7738889,16.8638889,781.0
ba,ostra luka,Ostra Luka,02,3923.0,45.0,18.5883333,83.0
ba,ostrozac,Ostrozac,01,5456.0,44.9086111,15.940277800000002,347.0
ba,otoka,Otoka,01,6595.0,44.96,16.1791667,210.5
ba,pajic polje,Pajic Polje,01,4026.0,43.9758333,17.5275,681.5
ba,pale,Pale,02,7458.0,43.8161111,18.5694444,892.5
ba,pazaric,Pazaric,01,4787.0,43.7886111,18.1608333,783.5
ba,pecigrad,Pecigrad,01,6514.0,45.0544444,15.896944400000002,301.0
ba,peci,Peci,01,3650.0,44.6272222,16.7861111,352.0
ba,petkovci,Petkovci,02,2211.0,44.453055600000006,19.0761111,232.0
ba,piskavica,Piskavica,02,3797.0,44.8341667,16.9888889,196.0
ba,pjanici,Pjanici,01,3537.0,44.98361110000001,15.822777800000004,283.0
ba,podbrdo,Podbrdo,02,4028.0,44.4408333,17.0138889,813.5
ba,podhum,Podhum,01,5801.0,43.7230556,17.0011111,825.5
ba,podzvizd,Podzvizd,01,6665.0,45.1741667,15.8736111,195.0
ba,polje,Polje,01,3799.0,43.8805556,18.0744444,644.5
ba,posusje,Posusje,01,5114.0,43.4722222,17.326666699999997,652.0
ba,potoci,Potoci,01,8311.0,43.4086111,17.8786111,200.5
ba,pribinic,Pribinic,02,3558.0,44.61055560000001,17.6905556,393.5
ba,priboj,Priboj,02,4351.0,44.6027778,18.9313889,297.0
ba,prijedor,Prijedor,02,36346.0,44.9813889,16.713055599999993,142.0
ba,prnjavor,Prnjavor,02,7098.0,44.8702778,17.6627778,182.0
ba,prozor,Prozor,01,10349.0,43.8222222,17.6091667,787.0
ba,puracic,Puracic,01,3461.0,44.5469444,18.4766667,184.0
ba,radisici,Radisici,01,4071.0,43.2219444,17.543055600000002,220.5
ba,rodoc,Rodoc,01,5159.0,43.3088889,17.8069444,55.0
ba,rogatica,Rogatica,02,4946.0,43.8008333,19.0025,638.0
ba,rumboci,Rumboci,01,3854.0,43.8322222,17.5011111,585.0
ba,sanica,Sanica,01,5666.0,44.6141667,16.6411111,283.0
ba,sanski most,Sanski Most,01,13550.0,44.7652778,16.665555599999998,163.0
ba,sarajevo,Sarajevo,01,696726.0,43.85,18.3833333,580.5
ba,sekovici,Sekovici,02,6315.0,44.2986111,18.8527778,580.0
ba,serici,Serici,01,3663.0,44.4652778,18.5580556,209.0
ba,sipovo,Sipovo,02,10737.0,44.2813889,17.083888899999998,527.0
ba,skender vakuf,Skender Vakuf,02,6866.0,44.4908333,17.3775,898.0
ba,skokovi,Skokovi,01,3553.0,45.0313889,15.914444400000002,401.5
ba,sladna,Sladna,01,4304.0,44.7294444,18.4241667,271.5
ba,sokolac,Sokolac,02,8842.0,43.9397222,18.8016667,896.0
ba,solina,Solina,01,4780.0,44.5602778,18.6947222,336.0
ba,srbac,Srbac,02,7380.0,45.0977778,17.525,89.0
ba,srebrenica,Srebrenica,02,2861.0,44.1063889,19.2969444,582.0
ba,srebrenik,Srebrenik,01,6723.0,44.7077778,18.488055600000006,261.5
ba,stanari,Stanari,02,3590.0,44.7472222,17.8294444,217.5
ba,stijena,Stijena,01,10844.0,44.9352778,16.0172222,357.5
ba,stolac,Stolac,01,7733.0,43.0844444,17.9575,271.0
ba,stupari,Stupari,01,4424.0,44.3147222,18.6841667,467.5
ba,sturlic,Sturlic,01,5013.0,45.0638889,15.778055599999998,299.5
ba,sumatac,Sumatac,01,4987.0,45.0988889,15.8575,237.0
ba,svodna,Svodna,02,4387.0,45.0372222,16.5383333,189.5
ba,svojat,Svojat,01,3515.0,44.3947222,18.7391667,351.0
ba,tesanjka,Tesanjka,01,5666.0,44.67305560000001,18.012777800000006,189.5
ba,tesanj,Tesanj,01,7549.0,44.6116667,17.987222199999994,287.0
ba,teslic,Teslic,02,6404.0,44.6063889,17.859722199999997,214.0
ba,todorovo,Todorovo,01,9560.0,45.0883333,15.930833300000002,296.0
ba,tojsici,Tojsici,01,6587.0,44.4813889,18.7869444,306.0
ba,tolisa,Tolisa,01,4282.0,45.0430556,18.6427778,81.0
ba,tomislavgrad,Tomislavgrad,01,7737.0,43.71805560000001,17.2266667,898.0
ba,travnik,Travnik,01,31127.0,44.2266667,17.6705556,681.5
ba,trebinje,Trebinje,02,33177.0,42.71194439999999,18.3441667,513.0
ba,trn,Trn,02,7553.0,44.8597222,17.236388899999998,141.0
ba,trzacka rastela,Trzacka Rastela,01,6617.0,44.9733333,15.790277800000002,316.0
ba,turbe,Turbe,01,4766.0,44.2436111,17.5713889,696.5
ba,tuzla,Tuzla,01,142484.0,44.5427778,18.6694444,336.0
ba,ugljevik,Ugljevik,02,3452.0,44.6636111,19.0202778,278.0
ba,ustikolina,Ustikolina,01,4446.0,43.58361110000001,18.79,734.0
ba,vares,Vares,01,7193.0,44.1644444,18.3283333,988.5
ba,varoska rijeka,Varoska Rijeka,01,6573.0,45.0847222,16.014166699999997,256.0
ba,velagici,Velagici,01,4972.0,44.5572222,16.731666699999998,389.0
ba,velika kladusa,Velika Kladusa,01,19330.0,45.1894444,15.811666699999998,161.0
ba,velika obarska,Velika Obarska,02,5142.0,44.8052778,19.1641667,83.0
ba,vidosi,Vidosi,01,3905.0,43.7713889,17.0283333,785.0
ba,visegrad,Visegrad,02,6086.0,43.7847222,19.2991667,459.0
ba,visoko,Visoko,01,17890.0,43.9888889,18.1780556,490.0
ba,vitez,Vitez,01,8140.0,44.1544444,17.790277800000005,479.0
ba,vitina,Vitina,01,4384.0,43.2375,17.4838889,79.0
ba,vlasenica,Vlasenica,02,4508.0,44.1819444,18.9405556,619.5
ba,vogosca,Vogosca,01,8179.0,43.9019444,18.3480556,618.0
ba,voljevac,Voljevac,01,3764.0,43.8786111,17.6591667,919.5
ba,vozuca,Vozuca,01,3209.0,44.3613889,18.3577778,428.5
ba,vrnograc,Vrnograc,01,6859.0,45.1636111,15.9536111,224.5
ba,zabrisce,Zabrisce,01,4261.0,43.7925,16.942222199999996,712.0
ba,zavidovici,Zavidovici,01,14380.0,44.4458333,18.1497222,269.0
ba,zboriste,Zboriste,01,4922.0,45.1458333,16.0177778,228.0
ba,zeljezno polje,Zeljezno Polje,01,5783.0,44.4083333,17.9319444,645.0
ba,zenica,Zenica,01,164422.0,44.2013889,17.9063889,507.0
ba,zepce,Zepce,01,8502.0,44.4266667,18.0377778,343.5
ba,zivinice,Zivinice,01,13640.0,44.4494444,18.6497222,226.0
ba,zivinice,Zivinice,02,3718.0,44.5472222,17.375,630.5
ba,zvornik,Zvornik,02,8024.0,44.3869444,19.1013889,226.0
bb,bathsheba,Bathsheba,06,1765.0,13.2166667,-59.5166667,0.0
bb,blackmans,Blackmans,06,623.0,13.1833333,-59.5333333,228.0
bb,bridgetown,Bridgetown,08,98511.0,13.1,-59.6166667,27.0
bb,crab hill,Crab Hill,07,727.0,13.3166667,-59.6333333,0.0
bb,greenland,Greenland,02,623.0,13.25,-59.5666667,0.0
bb,hillaby,Hillaby,02,519.0,13.2166667,-59.5833333,92.0
bb,holetown,Holetown,04,1350.0,13.1833333,-59.65,0.0
bb,oistins,Oistins,01,2285.0,13.0666667,-59.5333333,20.0
bb,speightstown,Speightstown,09,3634.0,13.25,-59.65,8.0
bd,abhaynagar,Abhaynagar,82,42658.0,23.0166667,89.4666667,5.0
bd,badarganj,Badarganj,83,32604.0,25.6666667,89.05,35.0
bd,bajitpur,Bajitpur,81,34564.0,24.2166667,90.95,8.0
bd,bandarban,Bandarban,80,32526.0,22.2,92.2166667,42.5
bd,baniachang,Baniachang,86,37812.0,24.5166667,91.3666667,13.0
bd,barisal,Barisal,84,280437.0,22.7,90.3666667,8.0
bd,bera,Bera,81,39608.0,24.0833333,89.6166667,11.0
bd,bhairab bazar,Bhairab Bazar,81,105470.0,24.0666667,90.9666667,9.0
bd,bhandaria,Bhandaria,84,30222.0,22.4833333,90.0666667,8.0
bd,bheramara,Bheramara,81,38164.0,24.0333333,88.9666667,18.0
bd,bhola,Bhola,80,99090.0,22.6833333,90.65,9.0
bd,chandpur,Chandpur,80,120183.0,23.15,90.7166667,9.0
bd,char bhadrasan,Char Bhadrasan,81,34427.0,23.3166667,90.2166667,8.0
bd,chhagalnaiya,Chhagalnaiya,80,39339.0,23.03,91.5069444,12.0
bd,chhatak,Chhatak,86,39223.0,25.0333333,91.6666667,11.0
bd,chilmari,Chilmari,81,49742.0,25.55,89.7166667,21.0
bd,dhaka,Dhaka,81,6493177.0,23.7230556,90.4086111,16.0
bd,dhamrai,Dhamrai,81,38003.0,23.9122222,90.2683333,15.0
bd,dinajpur,Dinajpur,83,206251.0,25.6333333,88.6333333,39.0
bd,dohar,Dohar,81,45549.0,23.5883333,90.1469444,9.0
bd,faridpur,Faridpur,81,112200.0,23.6,89.83333329999998,11.0
bd,fatikchhari,Fatikchhari,80,39974.0,22.725,91.7675,14.0
bd,feni,Feni,85,84038.0,23.0186111,91.41,10.0
bd,gafargaon,Gafargaon,81,34181.0,24.4333333,90.5666667,14.0
bd,gaurnadi,Gaurnadi,81,40524.0,22.9666667,90.2333333,9.0
bd,gazipur,Gazipur,81,132249.0,23.8,90.65,10.0
bd,habiganj,Habiganj,86,88770.0,24.3833333,91.4166667,9.0
bd,hajiganj,Hajiganj,80,44349.0,23.2511111,90.8591667,8.0
bd,ishurdi,Ishurdi,81,82005.0,24.1333333,89.08333329999998,16.0
bd,jaipur hat,Jaipur Hat,83,73076.0,25.1,89.0166667,23.0
bd,jamalpur,Jamalpur,81,167914.0,24.9166667,89.9333333,20.0
bd,jhikargachha,Jhikargachha,82,41962.0,23.1166667,89.1166667,10.0
bd,kalia,Kalia,81,40497.0,23.05,89.6333333,6.0
bd,kaliganj,Kaliganj,82,45636.0,23.4166667,89.1333333,10.0
bd,keshabpur,Keshabpur,82,30930.0,22.9166667,89.2166667,6.0
bd,khagrachari,Khagrachari,80,50364.0,23.1,91.9666667,48.0
bd,khulna,Khulna,82,1342429.0,22.8,89.55,7.0
bd,kishorganj,Kishorganj,81,90700.0,24.4333333,90.7666667,14.0
bd,laksham,Laksham,85,82299.0,23.2472222,91.1425,9.0
bd,lakshmipur,Lakshmipur,85,61710.0,22.95,90.8333333,10.0
bd,lalmanir hat,Lalmanir Hat,83,65135.0,25.9,89.45,34.0
bd,lalmohan,Lalmohan,80,42225.0,22.3166667,90.7166667,6.0
bd,madaripur,Madaripur,81,84799.0,23.175277800000003,90.2072222,6.0
bd,manikchhari,Manikchhari,80,24836.0,22.8386111,91.8455556,49.0
bd,manikganj,Manikganj,81,85800.0,23.855277800000003,90.0125,11.0
bd,mathbaria,Mathbaria,84,29764.0,22.3,89.95,5.0
bd,maulvi bazar,Maulvi Bazar,86,57448.0,24.4833333,91.7833333,18.0
bd,mehendiganj,Mehendiganj,80,39429.0,22.8166667,90.5333333,6.0
bd,mirzapur,Mirzapur,81,41142.0,24.1,90.1,11.0
bd,morrelganj,Morrelganj,84,31651.0,22.4666667,89.85,6.0
bd,muktagachha,Muktagachha,81,24687.0,24.7666667,90.2333333,18.0
bd,nabinagar,Nabinagar,80,31675.0,23.8916667,90.9733333,6.0
bd,nageshwari,Nageshwari,83,49431.0,25.9666667,89.7166667,30.0
bd,nalchiti,Nalchiti,84,38708.0,22.6333333,90.2833333,6.0
bd,naral,Naral,81,55118.0,23.1666667,89.5,9.0
bd,narayanganj,Narayanganj,81,223773.0,23.6233333,90.5011111,8.0
bd,narsingdi,Narsingdi,81,281110.0,23.9208333,90.7180556,10.0
bd,nawabganj,Nawabganj,83,142373.0,24.6,88.2833333,25.0
bd,netrakona,Netrakona,81,79025.0,24.8833333,90.7166667,12.0
bd,pabna,Pabna,81,137904.0,24.0,89.25,16.0
bd,palang,Palang,81,67659.0,23.2166667,90.35,8.0
bd,panchagarh,Panchagarh,83,48536.0,26.3333333,88.5666667,73.0
bd,parbatipur,Parbatipur,83,48026.0,25.65,88.91666670000002,36.0
bd,patiya,Patiya,80,51367.0,22.3030556,91.9783333,7.0
bd,phultala,Phultala,82,37990.0,22.7,89.5166667,3.0
bd,pirganj,Pirganj,83,34610.0,25.8666667,88.3666667,46.0
bd,pirojpur,Pirojpur,84,54424.0,22.5666667,89.9833333,8.0
bd,rajshahi,Rajshahi,81,700206.0,24.3666667,88.6,19.0
bd,ramganj,Ramganj,80,55247.0,23.1,90.85,11.0
bd,ramgarh,Ramgarh,80,28017.0,22.9702778,91.7966667,49.0
bd,rangpur,Rangpur,83,285586.0,25.75,89.25,34.0
bd,raozan,Raozan,80,25711.0,22.5661111,91.9325,18.0
bd,raypur,Raypur,80,64659.0,23.05,90.7666667,12.0
bd,sakhipur,Sakhipur,81,40874.0,24.3,90.1833333,23.0
bd,sarankhola,Sarankhola,84,36475.0,22.3,89.7833333,7.0
bd,sarishabari,Sarishabari,81,81334.0,24.7333333,89.83333329999998,18.0
bd,satkhira,Satkhira,82,128933.0,22.7166667,89.1,4.0
bd,sherpur,Sherpur,81,107431.0,25.0166667,90.0166667,21.0
bd,shibganj,Shibganj,83,35965.0,24.6833333,88.16666670000002,23.0
bd,sirajganj,Sirajganj,81,167501.0,24.45,89.7166667,14.0
bd,sunamganj,Sunamganj,86,76491.0,25.0666667,91.4,11.0
bd,teknaf,Teknaf,85,40562.0,20.8666667,92.3,2.0
bd,thakurgaon,Thakurgaon,83,71104.0,26.0333333,88.4666667,55.0
bd,tungi,Tungi,81,337620.0,23.89,90.4058333,13.0
be,aalst,Aalst,08,77534.0,50.93333300000001,4.033333,16.0
be,aalter,Aalter,08,18802.0,51.083333,3.45,14.0
be,aarschot,Aarschot,02,27656.0,50.983333,4.8333330000000005,19.0
be,aartselaar,Aartselaar,01,14193.0,51.133333,4.383333,12.0
be,alken,Alken,05,10933.0,50.866667,5.3,45.0
be,alveringem,Alveringem,09,4910.0,51.016667,2.716667,1.0
be,amay,Amay,04,13307.0,50.55,5.316667,169.0
be,amel,Amel,04,5221.0,50.35,6.15,459.0
be,andenne,Andenne,07,24055.0,50.483333,5.1,166.0
be,anderlues,Anderlues,03,11597.0,50.4,4.266667,191.5
be,anhee,Anhée,07,7125.0,50.316667,4.883333,178.5
be,ans,Ans,04,27297.0,50.65,5.533333,174.0
be,anthisnes,Anthisnes,04,4116.0,50.483333,5.516667,243.5
be,antoing,Antoing,03,7507.0,50.566667,3.45,23.0
be,antwerp,Antwerp,01,459805.0,51.216667,4.416667,5.0
be,anzegem,Anzegem,09,13920.0,50.833333,3.466667,31.0
be,ardooie,Ardooie,09,9161.0,50.983333,3.2,23.0
be,arendonk,Arendonk,01,12247.0,51.316667,5.0833330000000005,23.0
be,arlon,Arlon,06,26179.0,49.68333300000001,5.816667,388.0
be,as,As,05,7250.0,51.016667,5.5833330000000005,84.0
be,asse,Asse,02,28985.0,50.916667,4.2,46.0
be,assenede,Assenede,08,13495.0,51.233333,3.75,0.0
be,assesse,Assesse,07,6279.0,50.366667,5.016667,273.0
be,ath,Ath,03,26681.0,50.633333,3.783333,38.0
be,attert,Attert,06,4491.0,49.766667,5.783333,367.5
be,aubange,Aubange,06,14932.0,49.583333,5.8,279.0
be,aubel,Aubel,04,4119.0,50.7,5.85,216.0
be,avelgem,Avelgem,09,9106.0,50.766667,3.433333,14.0
be,awans,Awans,04,8612.0,50.666667,5.466667,151.0
be,aywaille,Aywaille,04,10636.0,50.466667,5.666667,231.0
be,baarle-hertog,Baarle-Hertog,01,2305.0,51.45,4.933333,27.0
be,baelen,Baelen,04,3928.0,50.633333,5.966667,265.0
be,balen,Balen,01,19978.0,51.166667,5.15,29.0
be,bassenge,Bassenge,04,8151.0,50.766667,5.6,108.5
be,bastogne,Bastogne,06,14395.0,50.0,5.716667,513.0
be,beaumont,Beaumont,03,6645.0,50.233333,4.233333,196.0
be,beauraing,Beauraing,07,8242.0,50.116667,4.966667,254.0
be,beauvechain,Beauvechain,02,6334.0,50.783333,4.766667,96.0
be,beernem,Beernem,09,14512.0,51.15,3.333333,7.0
be,beerse,Beerse,01,16208.0,51.316667,4.866667,26.0
be,beersel,Beersel,02,23228.0,50.766667,4.3,55.0
be,begijnendijk,Begijnendijk,02,9178.0,51.016667,4.766667,12.0
be,bekkevoort,Bekkevoort,02,5714.0,50.95,4.966667,44.0
be,beloeil,Beloeil,03,13405.0,50.55,3.716667,60.0
be,beringen,Beringen,05,40930.0,51.05,5.216667,36.0
be,berlaar,Berlaar,01,10370.0,51.116667,4.65,8.0
be,berlare,Berlare,08,13853.0,51.033333,4.0,3.0
be,berloz,Berloz,04,2770.0,50.7,5.216667,122.0
be,bernissart,Bernissart,03,11588.0,50.466667,3.633333,22.0
be,bertem,Bertem,02,9215.0,50.866667,4.633333,44.0
be,bertogne,Bertogne,06,2852.0,50.083333,5.666667,457.0
be,bertrix,Bertrix,06,8063.0,49.85,5.25,424.0
be,bever,Bever,02,1932.0,50.916667,4.316667,43.0
be,beveren,Beveren,08,45179.0,51.216667,4.25,3.0
be,beyne-heusay,Beyne-Heusay,04,11608.0,50.616667,5.65,167.5
be,bierbeek,Bierbeek,02,8994.0,50.833333,4.766667,83.0
be,bievre,Bièvre,07,3207.0,49.93333300000001,5.016667,388.5
be,bilzen,Bilzen,05,29622.0,50.866667,5.516667,75.0
be,binche,Binche,03,32030.0,50.4,4.166667,144.0
be,blankenberge,Blankenberge,09,18230.0,51.316667,3.1333330000000004,1.0
be,blegny,Blegny,04,12745.0,50.666667,5.733333,165.0
be,bocholt,Bocholt,05,12346.0,51.166667,5.5833330000000005,40.0
be,boechout,Boechout,01,12145.0,51.166667,4.5,9.0
be,bonheiden,Bonheiden,01,14260.0,51.033333,4.533333,5.0
be,boom,Boom,01,15810.0,51.083333,4.366667,3.0
be,boortmeerbeek,Boortmeerbeek,02,11570.0,50.983333,4.566667,9.0
be,borgloon,Borgloon,05,9955.0,50.8,5.3333330000000005,63.0
be,bornem,Bornem,01,19997.0,51.1,4.233333,2.0
be,borsbeek,Borsbeek,01,10334.0,51.2,4.483333,9.0
be,bouillon,Bouillon,06,5347.0,49.8,5.066667,342.0
be,boussu,Boussu,03,20058.0,50.43333300000001,3.8,27.0
be,boutersem,Boutersem,02,7702.0,50.85,4.8333330000000005,67.0
be,braine-le-chateau,Braine-le-Château,02,9627.0,50.68333300000001,4.266667,104.5
be,braine-le-comte,Braine-le-Comte,03,20133.0,50.6,4.133333,97.0
be,braives,Braives,04,5672.0,50.633333,5.15,140.0
be,brasschaat,Brasschaat,01,37040.0,51.283333,4.45,4.0
be,brecht,Brecht,01,25908.0,51.35,4.633333,22.0
be,bredene,Bredene,09,14862.0,51.233333,2.966667,1.0
be,bree,Bree,05,14363.0,51.133333,5.6,42.0
be,brugelette,Brugelette,03,3358.0,50.6,3.85,55.0
be,brugge,Brugge,09,116709.0,51.216667,3.233333,3.0
be,brunehaut,Brunehaut,03,7592.0,50.5,4.416667,150.0
be,brussels,Brussels,11,1019022.0,50.833333,4.3333330000000005,24.0
be,buggenhout,Buggenhout,08,13510.0,51.016667,4.2,7.0
be,bullingen,Bullingen,04,5340.0,50.416667,6.266667,602.0
be,burdinne,Burdinne,04,2799.0,50.583333,5.066667,181.0
be,butgenbach,Butgenbach,04,5516.0,50.43333300000001,6.2,564.5
be,celles,Celles,03,5471.0,50.716667,3.45,17.0
be,cerfontaine,Cerfontaine,07,4500.0,50.166667,4.416667,250.0
be,chapelle-lez-herlaimont,Chapelle-lez-Herlaimont,03,14353.0,50.466667,4.283333,157.0
be,charleroi,Charleroi,03,200132.0,50.416667,4.433333,148.0
be,chastre,Chastre,02,6243.0,50.6,4.633333,143.0
be,chatelet,Châtelet,03,35238.0,50.4,4.516667,126.0
be,chaudfontaine,Chaudfontaine,04,20960.0,50.583333,5.633333,257.5
be,chaumont-gistoux,Chaumont-Gistoux,02,10943.0,50.68333300000001,4.733333,133.0
be,chievres,Chièvres,03,6045.0,50.583333,3.8,58.0
be,chimay,Chimay,03,9720.0,50.05,4.316667,235.0
be,chiny,Chiny,06,4897.0,49.733333,5.3333330000000005,335.0
be,ciney,Ciney,07,14830.0,50.3,5.1,256.0
be,clavier,Clavier,04,4092.0,50.416667,5.366667,250.0
be,colfontaine,Colfontaine,03,19964.0,50.383333,3.866667,111.0
be,comblain-au-pont,Comblain-au-Pont,04,5308.0,50.466667,5.5833330000000005,208.5
be,courcelles,Courcelles,03,29473.0,50.466667,4.366667,159.0
be,court-saint-etienne,Court-Saint-Étienne,02,9353.0,50.65,4.566667,98.0
be,couvin,Couvin,07,13518.0,50.05,4.483333,209.5
be,crisnee,Crisnée,04,2587.0,50.716667,5.4,116.0
be,dalhem,Dalhem,04,6391.0,50.716667,5.716667,109.0
be,damme,Damme,09,10924.0,51.25,3.2833330000000003,0.0
be,daverdisse,Daverdisse,06,1299.0,50.016667,5.116667,358.5
be,deerlijk,Deerlijk,09,11292.0,50.85,3.35,14.0
be,de haan,De Haan,09,11766.0,51.266667,3.0333330000000003,0.0
be,deinze,Deinze,08,27777.0,50.983333,3.5333330000000003,8.0
be,denderleeuw,Denderleeuw,08,16969.0,50.883333,4.066667,17.0
be,dendermonde,Dendermonde,08,43055.0,51.033333,4.116667,3.0
be,dentergem,Dentergem,09,8038.0,50.966667,3.416667,10.0
be,de panne,De Panne,09,9799.0,51.1,2.583333,0.0
be,de pinte,De Pinte,08,10020.0,51.0,3.65,7.0
be,dessel,Dessel,01,8707.0,51.233333,5.116667,24.0
be,destelbergen,Destelbergen,08,16853.0,51.05,3.8,5.0
be,diepenbeek,Diepenbeek,05,17699.0,50.9,5.4,51.0
be,diest,Diest,02,22516.0,50.983333,5.05,25.0
be,diksmuide,Diksmuide,09,15515.0,51.033333,2.866667,1.0
be,dilbeek,Dilbeek,02,39482.0,50.85,4.266667,53.0
be,dinant,Dinant,07,12875.0,50.266667,4.916667,221.5
be,dison,Dison,04,13642.0,50.616667,5.85,230.5
be,doische,Doische,07,2739.0,50.133333,4.75,186.0
be,donceel,Donceel,04,2712.0,50.65,5.316667,153.0
be,dour,Dour,03,16861.0,50.4,3.783333,89.0
be,drogenbos,Drogenbos,02,4843.0,50.783333,4.316667,55.0
be,duffel,Duffel,01,16011.0,51.1,4.516667,5.0
be,durbuy,Durbuy,06,10251.0,50.35,5.466667,190.0
be,edegem,Edegem,01,21839.0,51.15,4.45,14.0
be,eeklo,Eeklo,08,19116.0,51.18333300000001,3.566667,4.0
be,eghezee,Éghezée,07,14352.0,50.6,4.9,145.0
be,ellezelles,Ellezelles,03,5566.0,50.733333,3.683333,55.5
be,enghien,Enghien,03,11367.0,50.7,4.033333,52.0
be,engis,Engis,04,5737.0,50.583333,5.416667,217.0
be,erezee,Érezée,06,2930.0,50.3,5.55,297.0
be,erquelinnes,Erquelinnes,03,9396.0,50.3,4.116667,142.0
be,esneux,Esneux,04,13497.0,50.533333,5.566667,158.0
be,essen,Essen,01,16754.0,51.466667,4.466667,10.0
be,estaimpuis,Estaimpuis,03,9340.0,50.7,3.25,19.0
be,etalle,Étalle,06,5228.0,49.68333300000001,5.6,345.0
be,eupen,Eupen,04,18029.0,50.633333,6.033333,284.0
be,evergem,Evergem,08,31615.0,51.116667,3.7,5.0
be,faimes,Faimes,04,3349.0,50.666667,5.266667,123.0
be,farciennes,Farciennes,03,11488.0,50.43333300000001,4.55,111.0
be,fauvillers,Fauvillers,06,1952.0,49.85,5.666667,433.0
be,ferrieres,Ferrières,04,4434.0,50.4,5.6,270.5
be,fexhe-le-haut-clocher,Fexhe-le-Haut-Clocher,04,3082.0,50.666667,5.4,140.0
be,fleron,Fléron,04,15994.0,50.616667,5.683333,231.0
be,fleurus,Fleurus,03,22080.0,50.483333,4.533333,157.0
be,flobecq,Flobecq,03,3142.0,50.733333,3.733333,43.0
be,floreffe,Floreffe,07,7480.0,50.43333300000001,4.783333,147.0
be,florennes,Florennes,07,10723.0,50.25,4.616667,268.0
be,florenville,Florenville,06,5464.0,49.7,5.3,344.0
be,frameries,Frameries,03,20598.0,50.4,3.9,114.0
be,galmaarden,Galmaarden,02,7939.0,50.75,3.966667,43.0
be,gavere,Gavere,08,11888.0,50.93333300000001,3.666667,30.5
be,gedinne,Gedinne,07,4416.0,49.983333,4.933333,347.0
be,geel,Geel,01,34697.0,51.166667,5.0,22.0
be,geer,Geer,04,2682.0,50.666667,5.166667,127.0
be,geetbets,Geetbets,02,5813.0,50.883333,5.116667,32.0
be,gembloux,Gembloux,07,21676.0,50.566667,4.683333,157.0
be,genappe,Genappe,02,14266.0,50.6,4.45,129.0
be,genk,Genk,05,63666.0,50.966667,5.5,79.0
be,gent,Gent,08,231493.0,51.05,3.716667,8.0
be,geraardsbergen,Geraardsbergen,08,30807.0,50.766667,3.866667,33.0
be,gerpinnes,Gerpinnes,03,11977.0,50.333333,4.516667,216.0
be,gesves,Gesves,07,6150.0,50.4,5.066667,260.0
be,gingelom,Gingelom,05,7930.0,50.75,5.116667,70.0
be,gistel,Gistel,09,11084.0,51.166667,2.95,1.0
be,glabbeek,Glabbeek,02,5070.0,50.866667,4.95,50.0
be,gooik,Gooik,02,8957.0,50.8,4.116667,58.0
be,gouvy,Gouvy,06,4706.0,50.185,5.941111,468.0
be,grez-doiceau,Grez-Doiceau,02,12367.0,50.733333,4.7,70.5
be,grimbergen,Grimbergen,02,33561.0,50.93333300000001,4.383333,22.0
be,grobbendonk,Grobbendonk,01,10724.0,51.2,4.716667,11.0
be,haacht,Haacht,02,13541.0,50.983333,4.633333,9.0
be,haaltert,Haaltert,08,17129.0,50.9,4.0,26.0
be,habay,Habay,06,7704.0,49.733333,5.616667,379.0
be,halen,Halen,05,8548.0,50.95,5.1,26.0
be,halle,Halle,02,34479.0,50.733333,4.233333,45.0
be,hamme,Hamme,08,22891.0,51.1,4.133333,4.0
be,hamoir,Hamoir,04,3500.0,50.43333300000001,5.533333,198.0
be,hamois,Hamois,07,6662.0,50.333333,5.133333,286.0
be,hannut,Hannut,04,14129.0,50.666667,5.0833330000000005,125.0
be,harelbeke,Harelbeke,09,25978.0,50.85,3.3,14.0
be,hasselt,Hasselt,05,69222.0,50.93333300000001,5.3333330000000005,36.0
be,hastiere,Hastière,07,5147.0,50.216667,4.8333330000000005,221.0
be,havelange,Havelange,07,4790.0,50.383333,5.233333,279.5
be,heers,Heers,05,6689.0,50.75,5.283333,79.0
be,heist-op-den-berg,Heist-op-den-Berg,01,37873.0,51.083333,4.716667,12.0
be,hemiksem,Hemiksem,01,9504.0,51.15,4.35,12.0
be,hensies,Hensies,03,6390.0,50.43333300000001,3.666667,20.0
be,herbeumont,Herbeumont,06,1612.0,49.783333,5.233333,348.0
be,herentals,Herentals,01,25912.0,51.18333300000001,4.8333330000000005,13.0
be,herent,Herent,02,19218.0,50.9,4.666667,31.0
be,herenthout,Herenthout,01,8379.0,51.15,4.766667,9.0
be,herk-de-stad,Herk-de-Stad,05,11566.0,50.93333300000001,5.166667,29.0
be,herne,Herne,02,6459.0,50.716667,4.033333,37.0
be,heron,Héron,04,4305.0,50.55,5.0833330000000005,181.0
be,herselt,Herselt,01,13493.0,51.05,4.883333,19.0
be,herstal,Herstal,04,36503.0,50.666667,5.633333,71.0
be,herve,Herve,04,16544.0,50.633333,5.8,281.0
be,herzele,Herzele,08,16523.0,50.883333,3.883333,54.0
be,hoegaarden,Hoegaarden,02,6110.0,50.783333,4.9,59.5
be,hoeilaart,Hoeilaart,02,10272.0,50.766667,4.466667,105.0
be,hoeselt,Hoeselt,05,9265.0,50.85,5.483333,74.0
be,holsbeek,Holsbeek,02,9094.0,50.916667,4.75,19.0
be,hooglede,Hooglede,09,9900.0,50.983333,3.083333,23.0
be,hoogstraten,Hoogstraten,01,18524.0,51.4,4.766667,17.0
be,hotton,Hotton,06,4969.0,50.266667,5.45,201.0
be,houffalize,Houffalize,06,4614.0,50.133333,5.783333,404.0
be,houthulst,Houthulst,09,8951.0,50.983333,2.95,17.0
be,houyet,Houyet,07,4505.0,50.18333300000001,5.016667,175.5
be,hove,Hove,01,7968.0,51.15,4.466667,17.0
be,huldenberg,Huldenberg,02,9137.0,50.783333,4.5833330000000005,82.0
be,hulshout,Hulshout,01,9198.0,51.083333,4.783333,9.0
be,huy,Huy,04,19973.0,50.516667,5.233333,111.5
be,ichtegem,Ichtegem,09,13582.0,51.1,3.0,13.0
be,ieper,Ieper,09,35089.0,50.85,2.8833330000000004,21.0
be,incourt,Incourt,02,4395.0,50.7,4.783333,134.0
be,ingelmunster,Ingelmunster,09,10603.0,50.916667,3.25,15.0
be,ittre,Ittre,02,6014.0,50.65,4.266667,119.0
be,izegem,Izegem,09,26382.0,50.916667,3.2,17.0
be,jabbeke,Jabbeke,09,13488.0,51.18333300000001,3.083333,1.0
be,jalhay,Jalhay,04,7688.0,50.566667,5.966667,380.0
be,jodoigne,Jodoigne,02,11930.0,50.716667,4.866667,90.0
be,juprelle,Juprelle,04,8354.0,50.716667,5.533333,139.5
be,jurbise,Jurbise,03,9483.0,50.533333,3.933333,83.0
be,kalmthout,Kalmthout,01,17485.0,51.383333,4.466667,17.0
be,kampenhout,Kampenhout,02,10784.0,50.95,4.55,14.0
be,kapellen,Kapellen,01,26410.0,51.316667,4.433333,9.0
be,kapelle-op-den-bos,Kapelle-op-den-Bos,02,8859.0,51.016667,4.366667,7.0
be,kaprijke,Kaprijke,08,6114.0,51.216667,3.6,1.0
be,kasterlee,Kasterlee,01,17765.0,51.25,4.95,19.0
be,keerbergen,Keerbergen,02,12363.0,51.0,4.616667,8.0
be,kinrooi,Kinrooi,05,11946.0,51.15,5.75,29.0
be,knesselare,Knesselare,08,7889.0,51.133333,3.416667,15.0
be,knokke-heist,Knokke-Heist,09,33781.0,51.35,3.266667,0.0
be,koekelare,Koekelare,09,8317.0,51.083333,2.966667,13.0
be,koksijde,Koksijde,09,21027.0,51.1,2.65,4.0
be,kontich,Kontich,01,20290.0,51.133333,4.45,14.0
be,kortemark,Kortemark,09,11937.0,51.033333,3.0333330000000003,11.0
be,kortenaken,Kortenaken,02,7374.0,50.916667,5.066667,47.0
be,kortenberg,Kortenberg,02,17774.0,50.883333,4.533333,46.0
be,kortessem,Kortessem,05,8042.0,50.866667,5.366667,51.0
be,kortrijk,Kortrijk,09,73879.0,50.833333,3.266667,22.0
be,kraainem,Kraainem,02,12815.0,50.866667,4.466667,66.0
be,kruibeke,Kruibeke,08,14815.0,51.166667,4.316667,7.0
be,kruishoutem,Kruishoutem,08,8179.0,50.9,3.516667,50.0
be,kuurne,Kuurne,09,12638.0,50.85,3.2833330000000003,16.0
be,laarne,Laarne,08,11600.0,51.033333,3.85,4.0
be,la bruyere,La Bruyère,07,8194.0,50.283333,4.5833330000000005,257.0
be,la hulpe,La Hulpe,02,7415.0,50.733333,4.483333,91.0
be,la louviere,La Louvière,03,76668.0,50.466667,4.183333,122.0
be,lanaken,Lanaken,05,24771.0,50.883333,5.65,63.0
be,landen,Landen,02,14458.0,50.75,5.0833330000000005,68.0
be,la roche-en-ardenne,La Roche-en-Ardenne,06,4200.0,50.18333300000001,5.5833330000000005,313.5
be,lebbeke,Lebbeke,08,17372.0,51.0,4.133333,5.0
be,ledegem,Ledegem,09,9102.0,50.85,3.116667,21.0
be,lede,Lede,08,16813.0,50.966667,3.983333,10.5
be,leglise,Léglise,06,3865.0,49.8,5.533333,432.0
be,lendelede,Lendelede,09,5393.0,50.883333,3.233333,20.0
be,lennik,Lennik,02,8818.0,50.8,4.15,63.0
be,lens,Lens,03,3902.0,50.55,3.9,65.0
be,leopoldsburg,Leopoldsburg,05,14149.0,51.116667,5.25,53.0
be,lessines,Lessines,03,17687.0,50.716667,3.833333,37.0
be,leuven,Leuven,12,92892.0,50.883333,4.7,31.0
be,libin,Libin,06,4609.0,49.983333,5.25,442.0
be,lichtervelde,Lichtervelde,09,8169.0,51.033333,3.15,25.0
be,liedekerke,Liedekerke,02,11980.0,50.866667,4.0833330000000005,19.0
be,liege,Liège,04,182597.0,50.633333,5.566667,131.0
be,lierneux,Lierneux,04,3332.0,50.283333,5.8,477.0
be,lille,Lille,01,15466.0,51.233333,4.8333330000000005,15.0
be,limbourg,Limbourg,04,5612.0,50.616667,5.933333,269.0
be,lincent,Lincent,04,2884.0,50.716667,5.033333,85.0
be,linkebeek,Linkebeek,02,4823.0,50.766667,4.3333330000000005,55.0
be,lint,Lint,01,7982.0,51.133333,4.5,9.0
be,lobbes,Lobbes,03,5467.0,50.35,4.25,176.0
be,lochristi,Lochristi,08,19696.0,51.1,3.833333,5.0
be,lokeren,Lokeren,08,37567.0,51.1,3.983333,4.0
be,lommel,Lommel,05,31993.0,51.233333,5.3,48.0
be,londerzeel,Londerzeel,02,17274.0,51.0,4.3,8.0
be,lontzen,Lontzen,04,4862.0,50.68333300000001,6.0,240.0
be,lovendegem,Lovendegem,08,9272.0,51.1,3.6,5.0
be,lubbeek,Lubbeek,02,13574.0,50.883333,4.8333330000000005,68.0
be,lummen,Lummen,05,13689.0,50.983333,5.2,27.0
be,maaseik,Maaseik,05,23684.0,51.1,5.8,26.0
be,maasmechelen,Maasmechelen,05,36251.0,50.816667,5.666667,57.0
be,machelen,Machelen,02,12252.0,50.916667,4.433333,13.0
be,maldegem,Maldegem,08,22092.0,51.216667,3.45,2.0
be,malmedy,Malmédy,04,11514.0,50.416667,6.033333,458.0
be,manage,Manage,03,22196.0,50.5,4.216667,123.0
be,manhay,Manhay,06,3128.0,50.3,5.666667,447.5
be,marche-en-famenne,Marche-en-Famenne,06,16856.0,50.2,5.3333330000000005,272.5
be,marchin,Marchin,04,5063.0,50.466667,5.233333,236.0
be,martelange,Martelange,06,1440.0,49.833333,5.733333,467.0
be,mechelen,Mechelen,01,77531.0,51.033333,4.466667,7.0
be,meerhout,Meerhout,01,9346.0,51.133333,5.0833330000000005,24.0
be,meise,Meise,02,18497.0,50.93333300000001,4.3333330000000005,43.0
be,meix-devant-virton,Meix-devant-Virton,06,2637.0,49.6,5.483333,277.5
be,melle,Melle,08,10687.0,51.0,3.8,6.0
be,menen,Menen,09,31916.0,50.8,3.116667,17.0
be,merbes-le-chateau,Merbes-le-Château,03,3999.0,50.316667,4.15,143.0
be,merchtem,Merchtem,02,14660.0,50.966667,4.233333,22.0
be,merelbeke,Merelbeke,08,22047.0,51.0,3.75,10.0
be,merksplas,Merksplas,01,7963.0,51.366667,4.866667,26.0
be,mesen,Mesen,09,975.0,50.766667,2.9,46.0
be,messancy,Messancy,06,7144.0,49.6,5.816667,304.5
be,mettet,Mettet,07,12014.0,50.316667,4.666667,247.0
be,meulebeke,Meulebeke,09,10948.0,50.95,3.2833330000000003,15.0
be,middelkerke,Middelkerke,09,17789.0,51.18333300000001,2.816667,0.0
be,modave,Modave,04,3825.0,50.45,5.3,239.0
be,moerbeke,Moerbeke,08,5855.0,51.166667,3.933333,3.0
be,mol,Mol,01,32659.0,51.18333300000001,5.1,26.0
be,momignies,Momignies,03,5183.0,50.033333,4.166667,269.0
be,mons,Mons,03,91277.0,50.45,3.933333,40.0
be,mont-saint-guibert,Mont-Saint-Guibert,02,6557.0,50.633333,4.616667,116.0
be,moorslede,Moorslede,09,10720.0,50.883333,3.066667,30.0
be,morlanwelz,Morlanwelz,03,18233.0,50.45,4.233333,114.0
be,mortsel,Mortsel,01,24525.0,51.166667,4.466667,9.0
be,mouscron,Mouscron,03,52069.0,50.733333,3.216667,33.0
be,musson,Musson,06,4225.0,49.566667,5.7,260.0
be,namur,Namur,07,106284.0,50.466667,4.866667,134.0
be,nandrin,Nandrin,04,5480.0,50.5,5.416667,243.0
be,nassogne,Nassogne,06,5081.0,50.133333,5.35,333.0
be,nazareth,Nazareth,08,10890.0,50.966667,3.6,8.0
be,neerpelt,Neerpelt,05,16122.0,51.216667,5.416667,40.0
be,neufchateau,Neufchâteau,06,6416.0,49.833333,5.433333,434.0
be,nevele,Nevele,08,11153.0,51.033333,3.55,8.0
be,niel,Niel,01,8656.0,51.116667,4.3333330000000005,1.0
be,nieuwerkerken,Nieuwerkerken,05,6466.0,50.866667,5.183333,38.0
be,nieuwpoort,Nieuwpoort,09,10845.0,51.133333,2.75,1.0
be,nijlen,Nijlen,01,20792.0,51.166667,4.65,5.0
be,ninove,Ninove,08,34795.0,50.833333,4.016667,34.0
be,nivelles,Nivelles,02,24149.0,50.6,4.3333330000000005,118.0
be,ohey,Ohey,07,4324.0,50.43333300000001,5.133333,253.0
be,olen,Olen,01,11070.0,51.15,4.85,19.0
be,olne,Olne,04,3836.0,50.583333,5.75,243.0
be,onhaye,Onhaye,07,3014.0,50.25,4.8333330000000005,210.0
be,oosterzele,Oosterzele,08,13151.0,50.95,3.8,45.0
be,oostkamp,Oostkamp,09,21489.0,51.15,3.233333,9.0
